qid,label,creator,year,country,country_clean,geo_tag,collection,location_label,lat,lon,sitelinks,pageviews_12mo,score,en_article,image
Q12418,Mona Lisa,Leonardo da Vinci,1503,France,France,France,Department of Paintings of the Louvre,"Salle des États, Louvre",48.8601,2.3354,146,2286388,100.0,Mona Lisa,http://commons.wikimedia.org/wiki/Special:FilePath/Mona%20Lisa%2C%20by%20Leonardo%20da%20Vinci%2C%20from%20C2RMF%20natural%20color.jpg
Q45585,The Starry Night,Vincent van Gogh,1889,United States,United States,United States,Museum of Modern Art,Museum of Modern Art,40.761444444,-73.977611111,76,1248413,78.3,The Starry Night,http://commons.wikimedia.org/wiki/Special:FilePath/Van%20Gogh%20-%20Starry%20Night%20-%20Google%20Art%20Project.jpg
Q175036,Guernica,Pablo Picasso,1937,Spain,Spain,Spain,Museo Nacional Centro de Arte Reina Sofía,Museo Nacional Centro de Arte Reina Sofía,40.40857143,-3.6939961,70,980489,75.7,Guernica (Picasso),http://commons.wikimedia.org/wiki/Special:FilePath/Mural%20del%20%22Guernica%22%20de%20Picasso.jpg
Q185372,Girl with a Pearl Earring,Johannes Vermeer,1665,Netherlands,Netherlands,Netherlands,Mauritshuis,Mauritshuis,52.080388888,4.314305555,71,600916,74.0,Girl with a Pearl Earring,http://commons.wikimedia.org/wiki/Special:FilePath/1665%20Girl%20with%20a%20Pearl%20Earring.jpg
Q29530,Liberty Leading the People,Eugène Delacroix,1830,France,France,France,Department of Paintings of the Louvre,Room 700,48.8605,2.33494,67,309674,70.2,Liberty Leading the People,http://commons.wikimedia.org/wiki/Special:FilePath/La%20Libert%C3%A9%20guidant%20le%20peuple%20-%20Eug%C3%A8ne%20Delacroix%20-%20Mus%C3%A9e%20du%20Louvre%20Peintures%20RF%20129%20-%20apr%C3%A8s%20restauration%202024.jpg
Q151047,The Birth of Venus,Sandro Botticelli,1485,Italy,Italy,Italy,Uffizi Gallery,"Uffizi Gallery - Room 11-12, Botticelli's, Florence, Italy",43.768333333,11.255277777,57,528450,69.6,The Birth of Venus,http://commons.wikimedia.org/wiki/Special:FilePath/Sandro%20Botticelli%20-%20La%20nascita%20di%20Venere%20-%20Google%20Art%20Project%20-%20edited.jpg
Q208758,Las Meninas,Diego Velázquez,1656,Spain,Spain,Spain,Museo del Prado,Museo del Prado,40.413888888,-3.692222222,57,453515,69.0,Las Meninas,http://commons.wikimedia.org/wiki/Special:FilePath/Las%20Meninas%2C%20by%20Diego%20Vel%C3%A1zquez%2C%20from%20Prado%20in%20Google%20Earth.jpg
Q321303,The Garden of Earthly Delights,Hieronymus Bosch,1490,Spain,Spain,Spain,Museo del Prado,Museo del Prado,40.413888888,-3.692222222,49,702233,68.6,The Garden of Earthly Delights,http://commons.wikimedia.org/wiki/Special:FilePath/The%20Garden%20of%20Earthly%20Delights%20by%20Bosch%20High%20Resolution%202.jpg
Q219831,The Night Watch,Rembrandt,1642,Netherlands,Netherlands,Netherlands,Rijksmuseum,Nightwatch hall,52.359822,4.885017,58,282910,67.3,The Night Watch,http://commons.wikimedia.org/wiki/Special:FilePath/La%20ronda%20de%20noche%2C%20por%20Rembrandt%20van%20Rijn.jpg
Q698487,The Kiss,Gustav Klimt,1907,Austria,Austria,Austria,Belvedere,Belvedere,48.191388888,16.380833333,50,424673,66.8,The Kiss (Klimt),http://commons.wikimedia.org/wiki/Special:FilePath/The%20Kiss%20-%20Gustav%20Klimt%20-%20Google%20Cultural%20Institute.jpg
Q25729,The Persistence of Memory,Salvador Dalí,1931,United States,United States,United States,Museum of Modern Art,Museum of Modern Art,40.761444444,-73.977611111,48,456541,66.5,The Persistence of Memory,
Q464782,American Gothic,Grant Wood,1930,United States,United States,United States,Art Institute of Chicago,Art Institute of Chicago,41.879444444,-87.623888888,45,545561,66.5,American Gothic,http://commons.wikimedia.org/wiki/Special:FilePath/Grant%20Wood%20-%20American%20Gothic%20%281930%29.jpg
Q311243,Wanderer above the Sea of Fog,Caspar David Friedrich,1818,Germany,Germany,Germany,Hamburger Kunsthalle,Hamburger Kunsthalle,53.555,10.003055555,48,436008,66.4,Wanderer above the Sea of Fog,http://commons.wikimedia.org/wiki/Special:FilePath/Friedrich%2C%20Caspar%20David%20-%20Wanderer%20%C3%BCber%20dem%20Nebelmeer.jpg
Q474338,Lady with an Ermine,Leonardo da Vinci,1490,Poland,Poland,Europe other,Czartoryski Museum,Czartoryski Museum,50.0646408,19.9399667,50,312563,65.5,Lady with an Ermine,http://commons.wikimedia.org/wiki/Special:FilePath/Lady%20with%20an%20Ermine%20-%20Leonardo%20da%20Vinci%20-%20Google%20Art%20Project.jpg
Q1150997,Saturn Devouring His Son,Francisco Goya,1820,Spain,Spain,Spain,Museo del Prado,Museo del Prado,40.413888888,-3.692222222,37,745875,65.5,Saturn Devouring His Son,http://commons.wikimedia.org/wiki/Special:FilePath/Francisco%20de%20Goya%2C%20Saturno%20devorando%20a%20su%20hijo%20%281819-1823%29.jpg
Q328523,"Impression, Sunrise",Claude Monet,1872,France,France,France,Musée Marmottan Monet,Porto-Vecchio,41.590833333,9.279722222,52,205095,64.4,"Impression, Sunrise",http://commons.wikimedia.org/wiki/Special:FilePath/Monet%20-%20Impression%2C%20Sunrise.jpg
Q212616,The Raft of the Medusa,Théodore Géricault,1819,France,France,France,Department of Paintings of the Louvre,Room 700,48.8605,2.33494,47,284398,64.3,The Raft of the Medusa,http://commons.wikimedia.org/wiki/Special:FilePath/JEAN%20LOUIS%20TH%C3%89ODORE%20G%C3%89RICAULT%20-%20La%20Balsa%20de%20la%20Medusa%20%28Museo%20del%20Louvre%2C%201818-19%29.jpg
Q83872,Nighthawks,Edward Hopper,1942,United States,United States,United States,Art Institute of Chicago,Art Institute of Chicago,41.879444444,-87.623888888,38,511951,64.3,Nighthawks (Hopper),http://commons.wikimedia.org/wiki/Special:FilePath/Nighthawks%20by%20Edward%20Hopper%201942.jpg
Q334138,L'Origine du monde,Gustave Courbet,1866,France,France,France,Musée d'Orsay,Musée d'Orsay,48.859972,2.326527,51,206284,64.1,L'Origine du monde,http://commons.wikimedia.org/wiki/Special:FilePath/Origin-of-the-World.jpg
Q1752990,The Death of Socrates,Jacques-Louis David,1787,United States,United States,United States,Metropolitan Museum of Art,Metropolitan Museum of Art,40.779444444,-73.963333333,50,178590,63.3,The Death of Socrates,http://commons.wikimedia.org/wiki/Special:FilePath/The%20Death%20of%20Socrates%20MET%20DP-13139-001.jpg
Q220859,Arnolfini Portrait,Jan van Eyck,1434,United Kingdom,United Kingdom,United Kingdom,National Gallery,Room 28 Flowers: Dutch and Flemish Painting 1600–1700,51.508888888,-0.128333333,42,310849,63.3,Arnolfini Portrait,http://commons.wikimedia.org/wiki/Special:FilePath/Van%20Eyck%20-%20Arnolfini%20Portrait.jpg
Q636537,The Death of Marat,Jacques-Louis David,1793,Belgium,Belgium,Belgium,Royal Museums of Fine Arts of Belgium,Royal Museums of Fine Arts of Belgium,50.84168,4.358238,40,336756,63.1,The Death of Marat,http://commons.wikimedia.org/wiki/Special:FilePath/Jacques-Louis%20David%20-%20Marat%20assassinated%20-%20Google%20Art%20Project%202.jpg
Q1091086,The Third of May 1808,Francisco Goya,1814,Spain,Spain,Spain,Museo del Prado,Museo del Prado,40.413888888,-3.692222222,45,218718,62.7,The Third of May 1808,http://commons.wikimedia.org/wiki/Special:FilePath/Francisco%20de%20Goya%20y%20Lucientes%20-%20Los%20fusilamientos%20del%20tres%20de%20mayo%20-%201814.jpg
Q1044742,A Sunday Afternoon on the Island of La Grande Jatte,Georges Seurat,1884,United States,United States,United States,Art Institute of Chicago,Art Institute of Chicago,41.879444444,-87.623888888,36,373642,62.4,A Sunday Afternoon on the Island of La Grande Jatte,http://commons.wikimedia.org/wiki/Special:FilePath/A%20Sunday%20on%20La%20Grande%20Jatte%2C%20Georges%20Seurat%2C%201884.jpg
Q1065493,Ophelia,John Everett Millais,1851,United Kingdom,United Kingdom,United Kingdom,National Gallery,Tate Britain,51.491062,-0.127789,32,459052,62.2,Ophelia (painting),http://commons.wikimedia.org/wiki/Special:FilePath/John%20Everett%20Millais%20-%20Ophelia%20-%20Google%20Art%20Project.jpg
Q4195595,"Ivan the Terrible and his son Ivan on November 16, 1581",Ilya Repin,1883,Russia,Russia,Russia,Tretyakov Gallery,Tretyakov Gallery,55.741389,37.620864,33,406149,62.0,Ivan the Terrible and His Son Ivan,http://commons.wikimedia.org/wiki/Special:FilePath/Iv%C3%A1n%20el%20Terrible%20y%20su%20hijo%2C%20por%20Ili%C3%A1%20Repin.jpg
Q734834,Ghent Altarpiece,Hubert van Eyck,1432,Allied-occupied Germany,Germany,Germany,Solly Collection,Ghent City Hall,51.052974,3.727059,39,261436,61.8,Ghent Altarpiece,http://commons.wikimedia.org/wiki/Special:FilePath/Ghent%20Altarpiece%20Google%20Art%20Project.jpg
Q154469,The Potato Eaters,Vincent van Gogh,1885,Netherlands,Netherlands,Netherlands,Van Gogh Museum,Van Gogh Museum,52.358333333,4.881111111,53,87647,61.2,The Potato Eaters,http://commons.wikimedia.org/wiki/Special:FilePath/De%20aardappeleters%20-%20s0005V1962%20-%20Van%20Gogh%20Museum.jpg
Q478271,Reply of the Zaporozhian Cossacks,Ilya Repin,1890,Russia,Russia,Russia,Russian Museum,Russian Museum,59.938592,30.332221,45,149520,61.2,Reply of the Zaporozhian Cossacks,http://commons.wikimedia.org/wiki/Special:FilePath/Ilja%20Jefimowitsch%20Repin%20-%20Reply%20of%20the%20Zaporozhian%20Cossacks%20-%20Yorck.jpg
Q549847,Primavera,Sandro Botticelli,1480,Italy,Italy,Italy,Uffizi Gallery,Palazzo Medici Riccardi,43.775288,11.255986,42,184983,61.2,Primavera (Botticelli),http://commons.wikimedia.org/wiki/Special:FilePath/Sandro%20Botticelli%20-%20La%20Primavera%20-%20Google%20Art%20Project.jpg
Q1061035,The Treachery of Images,René Magritte,1929,United States,United States,United States,Los Angeles County Museum of Art,The Broad,34.0544,-118.251,32,348603,61.1,The Treachery of Images,http://commons.wikimedia.org/wiki/Special:FilePath/Magritte%20treachery.jpg
Q354396,Portrait of Adele Bloch-Bauer I,Gustav Klimt,1907,United States,United States,United States,Neue Galerie,Austria,48.0,14.0,35,268166,60.8,Portrait of Adele Bloch-Bauer I,http://commons.wikimedia.org/wiki/Special:FilePath/Gustav%20Klimt%2C%201907%2C%20Adele%20Bloch-Bauer%20I%2C%20Neue%20Galerie%20New%20York.jpg
Q152509,Luncheon on the Grass,Édouard Manet,1863,France,France,France,Musée d'Orsay,Musée d'Orsay,48.859972,2.326527,45,134024,60.7,Le Déjeuner sur l'herbe,http://commons.wikimedia.org/wiki/Special:FilePath/Edouard%20Manet%20-%20Luncheon%20on%20the%20Grass%20-%20Google%20Art%20Project.jpg
Q737062,Olympia,Édouard Manet,1863,France,France,France,Musée d'Orsay,Musée d'Orsay,48.859972,2.326527,42,158618,60.6,Olympia (Manet),http://commons.wikimedia.org/wiki/Special:FilePath/Edouard%20Manet%20-%20Olympia%20-%20Google%20Art%20Project%203.jpg
Q1025704,Café Terrace at Night,Vincent van Gogh,1888,Netherlands,Netherlands,Netherlands,Kröller-Müller Museum,Kröller-Müller Museum,52.095833333,5.816944444,40,183607,60.6,Café Terrace at Night,http://commons.wikimedia.org/wiki/Special:FilePath/Van%20Gogh%20-%20Terrace%20of%20a%20Caf%C3%A9%20at%20Night%20%28Place%20du%20Forum%29%201888.jpg
Q910199,Les Demoiselles d'Avignon,Pablo Picasso,1907,United States,United States,United States,Museum of Modern Art,Museum of Modern Art,40.761444444,-73.977611111,36,231089,60.5,Les Demoiselles d'Avignon,
Q152867,La maja desnuda,Francisco Goya,1795,Spain,Spain,Spain,Museo del Prado,Museo del Prado,40.413888888,-3.692222222,45,125762,60.4,La maja desnuda,http://commons.wikimedia.org/wiki/Special:FilePath/Maja%20desnuda%20%28museo%20del%20Prado%29.jpg
Q476458,The Oath of the Horatii,Jacques-Louis David,1784,France,France,France,Department of Paintings of the Louvre,Room 702,48.860194444,2.336111111,41,159571,60.3,Oath of the Horatii,http://commons.wikimedia.org/wiki/Special:FilePath/Le%20Serment%20des%20Horaces%20-%20Jacques-Louis%20David%20-%20Mus%C3%A9e%20du%20Louvre%20Peintures%20INV%203692%20%3B%20MR%201432.jpg
Q661378,The Anatomy Lesson of Dr. Nicolaes Tulp,Rembrandt,1632,Netherlands,Netherlands,Netherlands,Mauritshuis,Mauritshuis,52.080388888,4.314305555,45,115251,60.1,The Anatomy Lesson of Dr. Nicolaes Tulp,http://commons.wikimedia.org/wiki/Special:FilePath/Rembrandt%20-%20The%20Anatomy%20Lesson%20of%20Dr%20Nicolaes%20Tulp.jpg
Q1245354,A Bar at the Folies-Bergère Sharon,Édouard Manet,1882,United Kingdom,United Kingdom,United Kingdom,Courtauld Gallery,Courtauld Gallery,51.51083333,-0.11722222,39,166886,60.0,A Bar at the Folies-Bergère,http://commons.wikimedia.org/wiki/Special:FilePath/Un%20bar%20aux%20Folies-Berg%C3%A8re%20d%27E.%20Manet%20%28Fondation%20Vuitton%2C%20Paris%29%20%2833539037428%29.jpg
Q634122,Wheatfield with Crows,Vincent van Gogh,1890,Netherlands,Netherlands,Netherlands,Van Gogh Museum,Van Gogh Museum,52.358333333,4.881111111,43,118828,59.7,Wheatfield with Crows,http://commons.wikimedia.org/wiki/Special:FilePath/Korenveld%20met%20kraaien%20-%20s0149V1962%20-%20Van%20Gogh%20Museum.jpg
Q1212937,The Ambassadors,Hans Holbein the Younger,1533,United Kingdom,United Kingdom,United Kingdom,National Gallery,Room 4 The Spectacle of Portraiture: European Painting 1500–1600,51.508888888,-0.128333333,34,213221,59.6,The Ambassadors (Holbein),http://commons.wikimedia.org/wiki/Special:FilePath/Hans%20Holbein%20the%20Younger%20-%20The%20Ambassadors%20-%20Google%20Art%20Project.jpg
Q1892745,Salvator Mundi,Leonardo da Vinci,1500,United Arab Emirates,United Arab Emirates,Asia,Louvre Abu Dhabi,Doughty House,51.452086,-0.29808,49,76654,59.5,Salvator Mundi (painting),http://commons.wikimedia.org/wiki/Special:FilePath/Leonardo%20da%20Vinci%2C%20Salvator%20Mundi%2C%20c.1500%2C%20oil%20on%20walnut%2C%2045.4%20%C3%97%2065.6%20cm.jpg
Q2246489,The Storm on the Sea of Galilee,Rembrandt,1633,,,,http://www.wikidata.org/.well-known/genid/96339d00960f46af8f0348af5c1d2d2b,,,,32,237766,59.5,The Storm on the Sea of Galilee,http://commons.wikimedia.org/wiki/Special:FilePath/Rembrandt%20Christ%20in%20the%20Storm%20on%20the%20Lake%20of%20Galilee.jpg
Q2664039,Madame X (Virginie Amélie Avegno Gautreau),John Singer Sargent,1884,United States,United States,United States,Metropolitan Museum of Art,Metropolitan Museum of Art,40.779444444,-73.963333333,26,354907,59.5,Portrait of Madame X,http://commons.wikimedia.org/wiki/Special:FilePath/Sargent%20MadameX.jpeg
Q107486133,Fallen angel,Alexandre Cabanel,1847,France,France,France,Musée Fabre,Musée Fabre,43.611736111,3.880191666,20,521740,59.4,The Fallen Angel (painting),http://commons.wikimedia.org/wiki/Special:FilePath/Alexandre%20Cabanel%20-%20Fallen%20Angel.jpg
Q2282256,Irises,Vincent van Gogh,1889,United States,United States,United States,J. Paul Getty Museum,Getty Center,34.0775,-118.475,43,105183,59.2,Irises (painting),http://commons.wikimedia.org/wiki/Special:FilePath/Irises-Vincent%20van%20Gogh.jpg
Q604761,The Blue Boy,Thomas Gainsborough,1770,United States,United States,United States,"The Huntington Library, Art Museum, and Botanical Gardens","The Huntington Library, Art Museum, and Botanical Gardens",34.129166666,-118.1125,38,147287,59.2,The Blue Boy,http://commons.wikimedia.org/wiki/Special:FilePath/Thomas%20Gainsborough%20-%20The%20Blue%20Boy%20%28c.%201770%29.jpg
Q1151384,The Son of Man,René Magritte,1964,,,,http://www.wikidata.org/.well-known/genid/7646152468744bd2a474158632f264d1,,,,24,374305,59.2,The Son of Man,
Q727875,Venus of Urbino,Titian,1538,Italy,Italy,Italy,Uffizi Gallery,Uffizi Gallery,43.768333333,11.255277777,40,122597,59.0,Venus of Urbino,http://commons.wikimedia.org/wiki/Special:FilePath/Tiziano%27s%20Venere%20di%20Urbino%20%28from%20The%20History%20BLog%29.jpg
Q167605,The Milkmaid,Johannes Vermeer,1660,Netherlands,Netherlands,Netherlands,Rijksmuseum,Gallery of Honour,52.360025,4.885286111,44,91800,58.9,The Milkmaid (Vermeer),http://commons.wikimedia.org/wiki/Special:FilePath/Johannes%20Vermeer%20-%20Het%20melkmeisje%20-%20Google%20Art%20Project.jpg
Q328079,Sistine Madonna,Raphael,1512,Germany,Germany,Germany,Staatliche Kunstsammlungen Dresden,Gemäldegalerie Alte Meister,51.05338,13.73466,38,127516,58.6,Sistine Madonna,http://commons.wikimedia.org/wiki/Special:FilePath/Raphael%20-%20The%20Sistine%20Madonna%20-%20Google%20Arts%20%26%20Culture.jpg
Q1926628,The Red Vineyard,Vincent van Gogh,1888,Russia,Russia,Russia,Pushkin Museum of Fine Arts,Pushkin Museum of Fine Arts,55.74702868,37.60602901,37,136433,58.6,The Red Vineyard,http://commons.wikimedia.org/wiki/Special:FilePath/Vincent%20van%20Gogh%20-%20Red%20Vineyard%20at%20Arles%20%281888%29.jpg
Q2629559,The Swing,Jean-Honoré Fragonard,1767,United Kingdom,United Kingdom,United Kingdom,Wallace Collection,Wallace Collection,51.517454,-0.153022,34,162408,58.5,The Swing (Fragonard),http://commons.wikimedia.org/wiki/Special:FilePath/Fragonard%2C%20The%20Swing.jpg
Q1231009,The Coronation of Napoleon,Jacques-Louis David,1807,France,France,France,Department of Paintings of the Louvre,Sacre Hall,48.860194444,2.336111111,38,119986,58.3,The Coronation of Napoleon,http://commons.wikimedia.org/wiki/Special:FilePath/Le%20Sacre%20de%20Napol%C3%A9on%20-%20Jacques-Louis%20David%20-%20Mus%C3%A9e%20du%20Louvre%20Peintures%20INV%203699%20%3B%20MR%201437.jpg
Q683274,Bal du moulin de la Galette,Pierre-Auguste Renoir,1876,France,France,France,Musée d'Orsay,Musée d'Orsay,48.859972,2.326527,43,81176,58.1,Bal du moulin de la Galette,http://commons.wikimedia.org/wiki/Special:FilePath/Renoir%2C%20Pierre-Auguste%20-%20Dance%20at%20Le%20Moulin%20de%20la%20Galette%2C%201876.jpg
Q687182,Whistler's Mother,James McNeill Whistler,1871,France,France,France,Musée d'Orsay,Musée d'Orsay,48.859972,2.326527,31,175012,58.0,Whistler's Mother,http://commons.wikimedia.org/wiki/Special:FilePath/Whistlers%20Mother%20high%20res.jpg
Q500985,The Hunters in the Snow,Pieter Brueghel the Elder,1565,Austria,Austria,Austria,Kunsthistorisches Museum,Kunsthistorisches Museum,48.203880555,16.3616,38,106389,57.8,The Hunters in the Snow,http://commons.wikimedia.org/wiki/Special:FilePath/Pieter%20Bruegel%20the%20Elder%20-%20Hunters%20in%20the%20Snow%20%28Winter%29%20-%20Google%20Art%20Project.jpg
Q1464531,Starry Night Over the Rhone,Vincent van Gogh,1888,Netherlands,Netherlands,Netherlands,Musée d'Orsay,Musée d'Orsay,48.859972,2.326527,38,101167,57.6,Starry Night Over the Rhône,http://commons.wikimedia.org/wiki/Special:FilePath/Vincent%20van%20Gogh%20-%20Starry%20Night%20-%20Google%20Art%20Project.jpg
Q969377,The Calling of Saint Matthew,Caravaggio,1609,Italy,Italy,Italy,San Luigi dei Francesi,Contarelli Chapel,41.89944444,12.47472222,33,137887,57.5,The Calling of Saint Matthew,http://commons.wikimedia.org/wiki/Special:FilePath/Caravaggio%20%E2%80%94%20The%20Calling%20of%20Saint%20Matthew.jpg
Q2697937,Campbell's Soup Cans,Andy Warhol,1962,United States,United States,United States,Museum of Modern Art,Museum of Modern Art,40.761444444,-73.977611111,26,211074,57.4,Campbell's Soup Cans,http://commons.wikimedia.org/wiki/Special:FilePath/Campbell%27s%20Soup%20Cans%20by%20Andy%20Warhol.jpg
Q1170315,Black Square (1915),Kazimir Malevich,1915,Russia,Russia,Russia,Tretyakov Gallery,Tretyakov Gallery,55.741389,37.620864,37,96921,57.2,Black Square,http://commons.wikimedia.org/wiki/Special:FilePath/%D0%A7%D1%91%D1%80%D0%BD%D1%8B%D0%B9%20%D1%81%D1%83%D0%BF%D1%80%D0%B5%D0%BC%D0%B0%D1%82%D0%B8%D1%87%D0%B5%D1%81%D0%BA%D0%B8%D0%B9%20%D0%BA%D0%B2%D0%B0%D0%B4%D1%80%D0%B0%D1%82.%201915.%20%D0%93%D0%A2%D0%93.png
Q6609268,Stańczyk,Jan Matejko,1862,Poland,Poland,Europe other,National Museum in Warsaw,National Museum in Warsaw,52.231666666,21.024722222,21,265746,56.9,Stańczyk (painting),http://commons.wikimedia.org/wiki/Special:FilePath/Jan%20Matejko%20-%20Sta%C5%84czyk%20-%20Google%20Art%20Project.jpg
Q1267893,Ginevra de' Benci,Leonardo da Vinci,1476,United States,United States,United States,"National Gallery of Art (Washington, D.C.)","National Gallery of Art (Washington, D.C.)",38.891388888,-77.02,40,72341,56.8,Ginevra de' Benci,http://commons.wikimedia.org/wiki/Special:FilePath/Ginevra%20de%27%20Benci%20-%20National%20Gallery%20of%20Art.jpg
Q2465911,Christina's World,Andrew Wyeth,1948,United States,United States,United States,Museum of Modern Art,United States,39.828175,-98.5795,22,242818,56.8,Christina's World,
Q533619,Netherlandish Proverbs,Pieter Brueghel the Elder,1559,Germany,Germany,Germany,Gemäldegalerie Berlin,Dutch paintings 15th-16th-century room 7,52.508611111,13.364722222,37,81314,56.5,Netherlandish Proverbs,http://commons.wikimedia.org/wiki/Special:FilePath/Pieter%20Bruegel%20%28der%20%C3%84ltere%29%20%28ca.%201525%20-%201569%29%20-%20Die%20niederl%C3%A4ndischen%20Sprichw%C3%B6rter%20-%201720%20-%20Gem%C3%A4ldegalerie.jpg
Q500554,At Eternity's Gate,Vincent van Gogh,1890,Netherlands,Netherlands,Netherlands,Kröller-Müller Museum,Kröller-Müller Museum,52.095833333,5.816944444,29,131512,56.2,At Eternity's Gate,http://commons.wikimedia.org/wiki/Special:FilePath/At%20Eternity%27s%20Gate%20-%20Vincent%20Van%20Gogh.jpg
Q6592831,The Problem We All Live With,Norman Rockwell,1965,United States,United States,United States,Norman Rockwell Museum,Norman Rockwell Museum,42.287917,-73.335864,16,304341,56.1,The Problem We All Live With,
Q644856,The Triumph of Death,Pieter Brueghel the Elder,1560,Spain,Spain,Spain,Museo del Prado,Museo del Prado,40.413888888,-3.692222222,31,106514,55.9,The Triumph of Death,http://commons.wikimedia.org/wiki/Special:FilePath/The%20Triumph%20of%20Death%20by%20Pieter%20Bruegel%20the%20Elder.jpg
Q512755,The Return of the Prodigal Son,Rembrandt,1668,Russia,Russia,Russia,Hermitage Museum,Hermitage Museum,59.940555555,30.313611111,30,113287,55.9,The Return of the Prodigal Son (Rembrandt),http://commons.wikimedia.org/wiki/Special:FilePath/Rembrandt%20Harmensz%20van%20Rijn%20-%20Return%20of%20the%20Prodigal%20Son%20-%20Google%20Art%20Project.jpg
Q2366825,The Hay Wain,John Constable,1821,United Kingdom,United Kingdom,United Kingdom,National Gallery,National Gallery,51.508888888,-0.128333333,30,113840,55.9,The Hay Wain,http://commons.wikimedia.org/wiki/Special:FilePath/John%20Constable%20-%20The%20Hay%20Wain%20%281821%29.jpg
Q185255,The Wedding at Cana,Paolo Veronese,1560,France,France,France,Department of Paintings of the Louvre,"Salle des États, Louvre",48.8601,2.3354,31,104418,55.8,The Wedding at Cana (Veronese),http://commons.wikimedia.org/wiki/Special:FilePath/Les%20Noces%20de%20Cana%20-%20Paolo%20Veronese%20-%20Mus%C3%A9e%20du%20Louvre%20Peintures%20INV%20142%20%3B%20MR%20384.jpg
Q2470123,Judith Beheading Holofernes,Caravaggio,1599,Italy,Italy,Italy,Galleria Nazionale d'Arte Antica,Palazzo Barberini,41.903324209,12.489856069,29,117221,55.8,Judith Beheading Holofernes (Caravaggio),http://commons.wikimedia.org/wiki/Special:FilePath/Judith%20Beheading%20Holofernes%20-%20Caravaggio.jpg
Q1247110,Landscape with the Fall of Icarus,http://www.wikidata.org/.well-known/genid/20e9cd436e0998b3d9617764a486424c,2000,Belgium,Belgium,Belgium,Royal Museums of Fine Arts of Belgium,Oldmasters Museum,50.84168,4.358241,25,150175,55.7,Landscape with the Fall of Icarus,http://commons.wikimedia.org/wiki/Special:FilePath/Pieter%20Bruegel%20the%20Elder%20-%20Landscape%20with%20the%20Fall%20of%20Icarus%20-%20Brussels%2C%20Royal%20Museums%20of%20Fine%20Arts%20of%20Belgium%20-%20Google%20Arts%20%26%20Culture.jpg
Q1978815,Grande Odalisque,Jean-Auguste-Dominique Ingres,1810,France,France,France,Department of Paintings of the Louvre,Room 702,48.860194444,2.336111111,34,79820,55.6,Grande Odalisque,http://commons.wikimedia.org/wiki/Special:FilePath/La%20grande%20odalisque%20-%20Jean-Auguste%20Dominique%20Ingres%20-%20Mus%C3%A9e%20du%20Louvre%20Peintures%20RF%201158.jpg
Q1167907,Luncheon of the Boating Party,Pierre-Auguste Renoir,1880,United States,United States,United States,The Phillips Collection,The Phillips Collection,38.911388888,-77.046805555,29,110902,55.5,Luncheon of the Boating Party,http://commons.wikimedia.org/wiki/Special:FilePath/Pierre-Auguste%20Renoir%20-%20Luncheon%20of%20the%20Boating%20Party%20-%20Google%20Art%20Project.jpg
Q563727,The Virgin and Child with Saint Anne,Leonardo da Vinci,1511,France,France,France,Department of Paintings of the Louvre,Room 710,,,38,57209,55.3,The Virgin and Child with Saint Anne (Leonardo),http://commons.wikimedia.org/wiki/Special:FilePath/Sainte%20Anne%20Leonard.jpg
Q2317837,The Nightmare,Henry Fuseli,1781,United States,United States,United States,Detroit Institute of Arts,Switzerland,46.798562,8.231973,23,154815,55.3,The Nightmare,http://commons.wikimedia.org/wiki/Special:FilePath/John%20Henry%20Fuseli%20-%20The%20Nightmare.JPG
Q783215,Saint John the Baptist,Leonardo da Vinci,1514,France,France,France,Department of Paintings of the Louvre,Louvre Museum,48.861111111,2.335833333,35,67129,55.1,Saint John the Baptist (Leonardo),http://commons.wikimedia.org/wiki/Special:FilePath/Leonardo%20da%20Vinci%20-%20Saint%20John%20the%20Baptist%20C2RMF%20retouched.jpg
Q523974,View of Delft,Johannes Vermeer,1661,Netherlands,Netherlands,Netherlands,Mauritshuis,Mauritshuis,52.080388888,4.314305555,40,45006,54.9,View of Delft,http://commons.wikimedia.org/wiki/Special:FilePath/Johannes%20Vermeer%20-%20View%20of%20Delft%20-%2092%20-%20Mauritshuis.jpg
Q509806,Washington Crossing the Delaware,Emanuel Leutze,1851,United States,United States,United States,Metropolitan Museum of Art,Metropolitan Museum of Art,40.779444444,-73.963333333,24,127028,54.7,Washington Crossing the Delaware (1851 paintings),http://commons.wikimedia.org/wiki/Special:FilePath/Washington%20Crossing%20the%20Delaware%20MET%20DP215410.jpg
Q257580,The Fighting Temeraire,J. M. W. Turner,1839,United Kingdom,United Kingdom,United Kingdom,National Gallery,National Gallery,51.508888888,-0.128333333,23,128554,54.5,The Fighting Temeraire,http://commons.wikimedia.org/wiki/Special:FilePath/Turner%2C%20J.%20M.%20W.%20-%20The%20Fighting%20T%C3%A9m%C3%A9raire%20tugged%20to%20her%20last%20Berth%20to%20be%20broken.jpg
Q13726073,The Goldfinch,Carel Fabritius,1654,Netherlands,Netherlands,Netherlands,Mauritshuis,Mauritshuis,52.080388888,4.314305555,20,158539,54.5,The Goldfinch (painting),http://commons.wikimedia.org/wiki/Special:FilePath/Carel%20Fabritius%20-%20The%20Goldfinch%20-%20605%20-%20Mauritshuis.jpg
Q167536,The Great Masturbator,Salvador Dalí,1929,Spain,Spain,Spain,Museo Nacional Centro de Arte Reina Sofía,Museo Nacional Centro de Arte Reina Sofía,40.40857143,-3.6939961,18,178211,54.5,The Great Masturbator,http://commons.wikimedia.org/wiki/Special:FilePath/El%20gran%20masturbador.jpg
Q674846,The Night Café,Vincent van Gogh,1888,United States,United States,United States,Yale University Art Gallery,Yale University Art Gallery,41.30839,-72.930958,38,45748,54.4,The Night Café,http://commons.wikimedia.org/wiki/Special:FilePath/Vincent%20Willem%20van%20Gogh%20076.jpg
Q2247406,Judith Slaying Holofernes,Artemisia Gentileschi,1613,Italy,Italy,Italy,Museo di Capodimonte,Museo di Capodimonte,40.86699,14.250346,24,117055,54.4,"Judith Slaying Holofernes (Artemisia Gentileschi, Naples)",http://commons.wikimedia.org/wiki/Special:FilePath/Artemisia%20Gentileschi%20-%20Judith%20Beheading%20Holofernes%20-%20WGA8563.jpg
Q1638622,Adoration of the Magi,Leonardo da Vinci,1482,Italy,Italy,Italy,Uffizi Gallery,Uffizi Gallery,43.768333333,11.255277777,34,58643,54.3,Adoration of the Magi (Leonardo),http://commons.wikimedia.org/wiki/Special:FilePath/Leonardo%20da%20Vinci%2C%20Adoration%2C%20c1481%2C%20Uffizi.jpg
Q275349,Rokeby Venus,Diego Velázquez,1644,United Kingdom,United Kingdom,United Kingdom,National Gallery,National Gallery,51.508888888,-0.128333333,31,69336,54.2,Rokeby Venus,http://commons.wikimedia.org/wiki/Special:FilePath/Diego%20Vel%C3%A1zquez%20-%20Rokeby%20Venus.jpg
Q175628,Barge Haulers on the Volga,Ilya Repin,1870,Russia,Russia,Russia,Russian Museum,Russian Museum,59.938592,30.332221,36,48247,54.1,Barge Haulers on the Volga,http://commons.wikimedia.org/wiki/Special:FilePath/Ilya%20Repin%20-%20Barge%20Haulers%20on%20the%20Volga%20-%20Google%20Art%20Project.jpg
Q3232010,The Two Fridas,Frida Kahlo,1939,Mexico,Mexico,Americas,Museo de Arte Moderno,Museo de Arte Moderno,19.42274,-99.17954,23,114011,54.0,The Two Fridas,
Q1217213,Annunciation,Leonardo da Vinci,1472,Italy,Italy,Italy,Uffizi Gallery,Uffizi Gallery,43.768333333,11.255277777,30,69594,53.9,Annunciation (Leonardo),http://commons.wikimedia.org/wiki/Special:FilePath/Annunciation%20%28Leonardo%29%20%28cropped%29.jpg
Q3267954,Weeping Woman,Pablo Picasso,1937,United Kingdom,United Kingdom,United Kingdom,Tate Modern,Tate Liverpool,53.40075,-2.99445,18,156433,53.9,The Weeping Woman,
Q500812,Sleeping Venus,Giorgione,1509,Germany,Germany,Germany,Staatliche Kunstsammlungen Dresden,Gemäldegalerie Alte Meister,51.05338,13.73466,37,42101,53.8,Sleeping Venus (Giorgione),http://commons.wikimedia.org/wiki/Special:FilePath/Giorgione%20-%20Sleeping%20Venus%20-%20Google%20Art%20Project%202.jpg
Q2293905,Medusa,Caravaggio,1597,Italy,Italy,Italy,Uffizi Gallery,Uffizi Gallery,43.768333333,11.255277777,28,75099,53.7,Medusa (Caravaggio),http://commons.wikimedia.org/wiki/Special:FilePath/Caravaggio%20-%20Medusa%20-%20Google%20Art%20Project.jpg
Q1368055,The Gleaners,Jean-François Millet,1857,France,France,France,Musée d'Orsay,Musée d'Orsay,48.859972,2.326527,26,86546,53.7,The Gleaners,http://commons.wikimedia.org/wiki/Special:FilePath/Jean-Fran%C3%A7ois%20Millet%20-%20Gleaners%20-%20Google%20Art%20Project.jpg
Q421716,"Nude Descending a Staircase, No. 2",Marcel Duchamp,1912,United States,United States,United States,Philadelphia Museum of Art,Philadelphia Museum of Art,39.965833333,-75.181388888,22,112531,53.7,"Nude Descending a Staircase, No. 2",
Q1133420,The Surrender of Brea,Diego Velázquez,1634,Spain,Spain,Spain,Museo del Prado,Museo del Prado,40.413888888,-3.692222222,37,39089,53.5,The Surrender of Breda,http://commons.wikimedia.org/wiki/Special:FilePath/Velazquez-The%20Surrender%20of%20Breda.jpg
Q1169395,The Concert,Johannes Vermeer,1663,United States,United States,United States,Isabella Stewart Gardner Museum,,42.33818,-71.099121,25,88963,53.5,The Concert (Vermeer),http://commons.wikimedia.org/wiki/Special:FilePath/Vermeer%20The%20Concert.jpg
Q2344437,Transfiguration,Raphael,1518,Vatican City,Italy,Italy,Pinacoteca Vaticana,Pinacoteca Vaticana,41.90573,12.45277,24,93875,53.5,Transfiguration (Raphael),http://commons.wikimedia.org/wiki/Special:FilePath/Transfigurazione%20%28Raffaello%29%20September%202015-1a.jpg
Q1213453,The Execution of Lady Jane Grey,Paul Delaroche,1833,United Kingdom,United Kingdom,United Kingdom,National Gallery,National Gallery,51.508888888,-0.128333333,17,148653,53.5,The Execution of Lady Jane Grey,http://commons.wikimedia.org/wiki/Special:FilePath/PAUL%20DELAROCHE%20-%20Ejecuci%C3%B3n%20de%20Lady%20Jane%20Grey%20%28National%20Gallery%20de%20Londres%2C%201834%29.jpg
Q1070896,The Ninth Wave,Ivan Aivazovsky,1850,Russia,Russia,Russia,Russian Museum,Russian Museum,59.938592,30.332221,36,40653,53.4,The Ninth Wave,http://commons.wikimedia.org/wiki/Special:FilePath/Hovhannes%20Aivazovsky%20-%20The%20Ninth%20Wave%20-%20Google%20Art%20Project.jpg
Q1059211,The Baptism of Christ,Leonardo da Vinci,1470,Italy,Italy,Italy,Uffizi Gallery,Hall A.35 Leonardo,43.768333333,11.255277777,30,61733,53.4,The Baptism of Christ (Verrocchio and Leonardo),http://commons.wikimedia.org/wiki/Special:FilePath/Verrocchio%20and%20Leonardo%2C%20Baptism%20of%20Christ%2C%20c1470-75%2C%20Uffizi.jpg
Q2395218,Woman with a Parasol – Madame Monet and Her Son,Claude Monet,1886,United States,United States,United States,"National Gallery of Art (Washington, D.C.)","National Gallery of Art (Washington, D.C.)",38.891388888,-77.02,23,99217,53.4,Woman with a Parasol – Madame Monet and Her Son,http://commons.wikimedia.org/wiki/Special:FilePath/Claude%20Monet%20-%20Woman%20with%20a%20Parasol%20-%20Madame%20Monet%20and%20Her%20Son%20-%20Google%20Art%20Project.jpg
Q713211,Freedom of Speech,Norman Rockwell,1943,United States,United States,United States,Norman Rockwell Museum,Norman Rockwell Museum,42.287917,-73.335864,17,145114,53.4,Freedom of Speech (painting),http://commons.wikimedia.org/wiki/Special:FilePath/Save%20freedom%20of%20speech.%20Buy%20war%20bonds%20%28cropped%29.jpg
Q588695,The Art of Painting,Johannes Vermeer,1667,Allied-occupied Germany,Germany,Germany,Kunsthistorisches Museum,Kunsthistorisches Museum,48.203880555,16.3616,31,54916,53.2,The Art of Painting,http://commons.wikimedia.org/wiki/Special:FilePath/Jan%20Vermeer%20-%20The%20Art%20of%20Painting%20-%20Google%20Art%20Project.jpg
Q656434,La Belle Ferronnière,Leonardo da Vinci,1495,France,France,France,Department of Paintings of the Louvre,Room 710,,,35,41214,53.1,La Belle Ferronnière,http://commons.wikimedia.org/wiki/Special:FilePath/La%20Belle%20Ferroni%C3%A8re%20-%20Google%20Arts.jpg
Q540488,A Burial at Ornans,Gustave Courbet,1841,France,France,France,Musée d'Orsay,Musée d'Orsay,48.859972,2.326527,33,46393,53.1,A Burial at Ornans,http://commons.wikimedia.org/wiki/Special:FilePath/Gustave%20Courbet%20-%20A%20Burial%20at%20Ornans%20-%20Google%20Art%20Project.jpg
Q2727560,The Beheading of Saint John the Baptist,Caravaggio,1608,Malta,Malta,Europe other,St. John's Co-Cathedral,St. John's Co-Cathedral,35.897778,14.512778,30,57450,53.1,The Beheading of Saint John the Baptist (Caravaggio),http://commons.wikimedia.org/wiki/Special:FilePath/La%20decapitaci%C3%B3n%20de%20San%20Juan%20Bautista%2C%20por%20Caravaggio.jpg
Q7536969,Skull of a Skeleton with Burning Cigarette,Vincent van Gogh,1884,Netherlands,Netherlands,Netherlands,Van Gogh Museum,Van Gogh Museum,52.358333333,4.881111111,24,85173,53.1,Skull of a Skeleton with Burning Cigarette,http://commons.wikimedia.org/wiki/Special:FilePath/Kop%20van%20een%20skelet%20met%20brandende%20sigaret%20-%20s0083V1962%20-%20Van%20Gogh%20Museum.jpg
Q1769529,"No. 5, 1948",Jackson Pollock,1948,United States,United States,United States,http://www.wikidata.org/.well-known/genid/ca67deddc8105f43bdd7927118b3a6f1,United States,39.828175,-98.5795,22,94099,53.0,"No. 5, 1948",
Q3228112,The Old Guitarist,Pablo Picasso,1903,United States,United States,United States,Art Institute of Chicago,Art Institute of Chicago,41.879444444,-87.623888888,16,141968,53.0,The Old Guitarist,
Q2304870,The Seven Deadly Sins and the Four Last Things,Hieronymus Bosch,1500,Spain,Spain,Spain,Museo del Prado,Museo del Prado,40.413888888,-3.692222222,24,81546,52.9,The Seven Deadly Sins and the Four Last Things,http://commons.wikimedia.org/wiki/Special:FilePath/Hieronymus%20Bosch-%20The%20Seven%20Deadly%20Sins%20and%20the%20Four%20Last%20Things.JPG
Q2445726,The Lady of Shalott,John William Waterhouse,1888,United Kingdom,United Kingdom,United Kingdom,National Gallery,Tate,51.508888888,-0.128333333,20,105932,52.9,The Lady of Shalott (painting),http://commons.wikimedia.org/wiki/Special:FilePath/John%20William%20Waterhouse%20-%20The%20Lady%20of%20Shalott%20-%20Google%20Art%20Project%20%28derivative%20work%20-%20AutoContrast%20edit%20in%20LCH%20space%29.jpg
Q500936,The Dog,Francisco Goya,1819,Spain,Spain,Spain,Museo del Prado,Museo del Prado,40.413888888,-3.692222222,19,112983,52.9,The Dog (Goya),http://commons.wikimedia.org/wiki/Special:FilePath/Goya%20Dog.jpg
Q573949,Marilyn Diptyque,Andy Warhol,1962,United Kingdom,United Kingdom,United Kingdom,Tate,Riaillé,47.518888888,-1.295555555,16,135939,52.8,Marilyn Diptych,
Q94802,The Burial of the Count of Orgaz,El Greco,1586,Spain,Spain,Spain,Church of Santo Tomé,Church of Santo Tomé,39.856822222,-4.028133333,29,55696,52.7,The Burial of the Count of Orgaz,http://commons.wikimedia.org/wiki/Special:FilePath/El%20Greco%20-%20The%20Burial%20of%20the%20Count%20of%20Orgaz.JPG
Q474024,Amor Vincit Omnia,Caravaggio,1601,Germany,Germany,Germany,Gemäldegalerie Berlin,"17th and 18th centuries Italian, French, Spanish paintings - Room XIV",52.508611111,13.364722222,28,58764,52.7,Amor Vincit Omnia (Caravaggio),http://commons.wikimedia.org/wiki/Special:FilePath/Caravaggio%20-%20Cupid%20as%20Victor%20-%20Google%20Art%20Project.jpg
Q2200610,The Yellow House,Vincent van Gogh,1888,Netherlands,Netherlands,Netherlands,Van Gogh Museum,Van Gogh Museum,52.358333333,4.881111111,37,31801,52.6,The Yellow House,http://commons.wikimedia.org/wiki/Special:FilePath/Vincent%20van%20Gogh%20-%20The%20yellow%20house%20%28%27The%20street%27%29.jpg
Q326503,The Sleepers,Gustave Courbet,1866,France,France,France,Musée des Beaux-Arts de la ville de Paris,Petit Palais,48.866027777,2.314555555,31,47556,52.6,Le Sommeil,http://commons.wikimedia.org/wiki/Special:FilePath/Gustave%20Courbet%20-%20Le%20Sommeil%20%281866%29%2C%20Paris%2C%20Petit%20Palais.jpg
Q846213,Flaming June,Frederic Leighton,1895,Puerto Rico,United States,United States,Museo de Arte de Ponce,Museo de Arte de Ponce,18.003888888,-66.616944444,24,76231,52.6,Flaming June,http://commons.wikimedia.org/wiki/Special:FilePath/Flaming%20June%2C%20by%20Frederic%20Lord%20Leighton%20%281830-1896%29.jpg
Q318947,Supper at Emmaus,Caravaggio,1601,United Kingdom,United Kingdom,United Kingdom,National Gallery,Room 32 Baroque Splendour: Italian Painting 1600–1700,51.508888888,-0.128333333,29,52161,52.5,"Supper at Emmaus (Caravaggio, London)",http://commons.wikimedia.org/wiki/Special:FilePath/Caravaggio%20-%20Supper%20at%20Emmaus%20-%20National%20Gallery%20London.jpeg
Q7649946,Portrait of Winston Churchill,Graham Sutherland,1954,,,,http://www.wikidata.org/.well-known/genid/27787d4351cf990430e4eecc50e1c70f,,,,12,166084,52.5,Portrait of Winston Churchill (Sutherland),
Q1213917,The Church at Auvers,Vincent van Gogh,1890,France,France,France,Musée d'Orsay,Musée d'Orsay,48.859972,2.326527,37,29779,52.3,The Church at Auvers,http://commons.wikimedia.org/wiki/Special:FilePath/Vincent%20van%20Gogh%20-%20The%20Church%20in%20Auvers-sur-Oise%2C%20View%20from%20the%20Chevet%20-%20Google%20Art%20Project.jpg
Q1473546,Doni Tondo,Michelangelo,1500,Italy,Italy,Italy,Uffizi Gallery,Uffizi Gallery,43.768333333,11.255277777,31,44081,52.3,Doni Tondo,http://commons.wikimedia.org/wiki/Special:FilePath/Tondo%20Doni%202015.png
Q2627056,David with the Head of Goliath,Caravaggio,1605,Italy,Italy,Italy,Borghese Collection,Galleria Borghese,41.91421,12.492144,25,62417,52.1,"David with the Head of Goliath (Caravaggio, Rome)",http://commons.wikimedia.org/wiki/Special:FilePath/David%20with%20the%20Head%20of%20Goliath-Caravaggio%20%281610%29.jpg
Q2665048,Dante and Virgil in Hell,William-Adolphe Bouguereau,1850,France,France,France,Musée d'Orsay,Musée d'Orsay,48.859972,2.326527,24,67288,52.1,Dante and Virgil,http://commons.wikimedia.org/wiki/Special:FilePath/William%20Bouguereau%20-%20Dante%20and%20Virgile%20-%20Google%20Art%20Project%202.jpg
Q1283024,The Birth of Venus,William-Adolphe Bouguereau,1879,France,France,France,Musée d'Orsay,Musée d'Orsay,48.859972,2.326527,33,35898,52.0,The Birth of Venus (Bouguereau),http://commons.wikimedia.org/wiki/Special:FilePath/William-Adolphe%20Bouguereau%20%281825-1905%29%20-%20The%20Birth%20of%20Venus%20%281879%29.jpg
Q1133821,Death of Sardanapalus,Eugène Delacroix,1827,France,France,France,Department of Paintings of the Louvre,Room 700,48.8605,2.33494,30,43861,52.0,The Death of Sardanapalus,http://commons.wikimedia.org/wiki/Special:FilePath/La%20Mort%20de%20Sardanapale%20-%20Eug%C3%A8ne%20Delacroix%20-%20Mus%C3%A9e%20du%20Louvre%20Peintures%20RF%202346.jpg
Q3173195,Declaration of Independence,John Trumbull,1810,United States,United States,United States,United States Capitol,United States Capitol,38.889722222,-77.009166666,17,104043,52.0,Declaration of Independence (painting),http://commons.wikimedia.org/wiki/Special:FilePath/Declaration%20of%20Independence%20%281819%29%2C%20by%20John%20Trumbull.jpg
Q713199,Freedom from Want,Norman Rockwell,1943,United States,United States,United States,Norman Rockwell Museum,Norman Rockwell Museum,42.287917,-73.335864,12,144179,52.0,Freedom from Want,http://commons.wikimedia.org/wiki/Special:FilePath/Freedom%20from%20want%20by%20normanrockwell.jpg
Q1239950,L'Absinthe,Edgar Degas,1875,France,France,France,Musée d'Orsay,Musée d'Orsay,48.859972,2.326527,30,42945,51.9,L'Absinthe,http://commons.wikimedia.org/wiki/Special:FilePath/Edgar%20Degas%20-%20In%20a%20Caf%C3%A9%20-%20Google%20Art%20Project%202.jpg
Q1167796,An Experiment on a Bird in the Air Pump,Joseph Wright of Derby,1768,United Kingdom,United Kingdom,United Kingdom,National Gallery,National Gallery,51.508888888,-0.128333333,24,63168,51.9,An Experiment on a Bird in the Air Pump,http://commons.wikimedia.org/wiki/Special:FilePath/An%20Experiment%20on%20a%20Bird%20in%20an%20Air%20Pump%20by%20Joseph%20Wright%20of%20Derby%2C%201768.jpg
Q1195035,The Kiss,Francesco Hayez,1859,Italy,Italy,Italy,Pinacoteca di Brera,Pinacoteca di Brera,45.471955,9.187815,28,47064,51.8,The Kiss (Hayez),http://commons.wikimedia.org/wiki/Special:FilePath/El%20Beso%20%28Pinacoteca%20de%20Brera%2C%20Mil%C3%A1n%2C%201859%29.jpg
Q2290433,The Massacre at Chios,Eugène Delacroix,1824,France,France,France,Department of Paintings of the Louvre,Room 700,48.8605,2.33494,28,47802,51.8,The Massacre at Chios,http://commons.wikimedia.org/wiki/Special:FilePath/Sc%C3%A8ne%20des%20massacres%20de%20Scio%2C%20Eug%C3%A8ne%20Delacroix%20-%20Mus%C3%A9e%20du%20Louvre%20Peintures%20INV%203823%20%3B%20C3.jpg
Q2571560,The Angelus,Jean-François Millet,1858,France,France,France,Musée d'Orsay,Musée d'Orsay,48.859972,2.326527,21,75305,51.8,The Angelus (painting),http://commons.wikimedia.org/wiki/Special:FilePath/JEAN-FRAN%C3%87OIS%20MILLET%20-%20El%20%C3%81ngelus%20%28Museo%20de%20Orsay%2C%201857-1859.%20%C3%93leo%20sobre%20lienzo%2C%2055.5%20x%2066%20cm%29.jpg
Q471289,The Wounded Angel,Hugo Simberg,1903,Finland,Finland,Europe other,Finnish National Gallery,Ateneum,60.1700846,24.9439789,29,43587,51.7,The Wounded Angel,http://commons.wikimedia.org/wiki/Special:FilePath/The%20Wounded%20Angel%20-%20Hugo%20Simberg.jpg
Q2027662,The Turkish Bath,Jean-Auguste-Dominique Ingres,1862,France,France,France,Department of Paintings of the Louvre,Room 940,,,27,49131,51.7,The Turkish Bath,http://commons.wikimedia.org/wiki/Special:FilePath/Le%20Bain%20Turc%2C%20by%20Jean%20Auguste%20Dominique%20Ingres%2C%20from%20C2RMFFXD.jpg
Q2521909,The Last Day of Pompeii,Karl Bryullov,1833,Italy,Italy,Italy,Russian Museum,Russian Museum,59.938592,30.332221,27,49219,51.7,The Last Day of Pompeii,http://commons.wikimedia.org/wiki/Special:FilePath/Karl%20Brullov%20-%20The%20Last%20Day%20of%20Pompeii%20-%20Google%20Art%20Project.jpg
Q2339059,"Rain, Steam and Speed – The Great Western Railway",J. M. W. Turner,1843,United Kingdom,United Kingdom,United Kingdom,National Gallery,United Kingdom,54.6,-2.0,26,53129,51.7,"Rain, Steam and Speed – The Great Western Railway",http://commons.wikimedia.org/wiki/Special:FilePath/Turner%20-%20Rain%2C%20Steam%20and%20Speed%20-%20National%20Gallery%20file.jpg
Q546241,Theotokos of Vladimir,http://www.wikidata.org/.well-known/genid/8ae9eff5d369995d380e8b3a3c59c98e,1125,Russia,Russia,Russia,Tretyakov Gallery,Tretyakov Gallery,55.741389,37.620864,31,36821,51.6,Virgin of Vladimir,http://commons.wikimedia.org/wiki/Special:FilePath/Vladimirskaja%20ikona%20Bo%C5%BEiej%20Materi.jpg
Q2126369,Mona Lisa,http://www.wikidata.org/.well-known/genid/3ea9d533d112cc12b409d29edc8f3369,1511,Spain,Spain,Spain,Museo del Prado,Museo del Prado,40.413888888,-3.692222222,15,108134,51.6,Mona Lisa (Prado),http://commons.wikimedia.org/wiki/Special:FilePath/Gioconda%20%28copia%20del%20Museo%20del%20Prado%20restaurada%29.jpg
Q25749,Christ of Saint John of the Cross,Salvador Dalí,1951,United Kingdom,United Kingdom,United Kingdom,Kelvingrove Art Gallery and Museum,Kelvingrove Art Gallery and Museum,55.868608412,-4.290636382,12,132010,51.6,Christ of Saint John of the Cross,
Q2666439,Morning in a Pine Forest,Ivan Shishkin,1889,Russia,Russia,Russia,Tretyakov Gallery,Tretyakov Gallery,55.741389,37.620864,30,37451,51.4,Morning in a Pine Forest,http://commons.wikimedia.org/wiki/Special:FilePath/Shishkin%2C%20Ivan%20-%20Morning%20in%20a%20Pine%20Forest.jpg
Q883994,View of Toledo,El Greco,1596,United States,United States,United States,Metropolitan Museum of Art,Metropolitan Museum of Art,40.779444444,-73.963333333,28,43125,51.4,View of Toledo,http://commons.wikimedia.org/wiki/Special:FilePath/View%20of%20Toledo%20MET%20DP349564.jpg
Q56886750,Love is in the Bin,Banksy,2018,,,,http://www.wikidata.org/.well-known/genid/7c359191091487de57bc4539efcc3bef,,,,16,95025,51.4,Love Is in the Bin,
Q2293953,Venus and Mars,Sandro Botticelli,1485,United Kingdom,United Kingdom,United Kingdom,National Gallery,Room 62 The Family Palace: Painting in Florence 1400‒1500,51.508888888,-0.128333333,27,44521,51.3,Venus and Mars (Botticelli),http://commons.wikimedia.org/wiki/Special:FilePath/Venus%20and%20Mars.jpg
Q1217288,Temptation of Saint Anthony,Hieronymus Bosch,1501,Portugal,Portugal,Europe other,National Museum of Ancient Art,National Museum of Ancient Art,38.7053,-9.16072,24,54517,51.3,Triptych of the Temptation of St. Anthony,http://commons.wikimedia.org/wiki/Special:FilePath/Temptation%20of%20Saint%20Anthony.jpg
Q2324643,Judith I,Gustav Klimt,1901,Austria,Austria,Austria,Belvedere,Belvedere,48.191388888,16.380833333,23,58955,51.3,Judith I,http://commons.wikimedia.org/wiki/Special:FilePath/Judith%201%20%28cropped%29.jpg
Q1240092,Portrait of Innocent X,Diego Velázquez,1700,Italy,Italy,Italy,Galleria Doria Pamphilj,Galleria Doria Pamphilj,41.897669,12.481145,22,63397,51.3,Portrait of Innocent X,http://commons.wikimedia.org/wiki/Special:FilePath/Diego%20Vel%C3%A1zquez%2C%20Portrait%20du%20pape%20Innocent%20X%2C%201650%2C%20huile%20sur%20toile%2C%20140%20%C3%97%20120%20cm%2C%20Rome%2C%20Galleria%20Doria%20Pamphilj%20%28inv.%20237%29.jpg
Q2419166,The Incredulity of Saint Thomas,Caravaggio,1601,Germany,Germany,Germany,Sanssouci Picture Gallery,Sanssouci Palace,52.403257,13.038626,20,71093,51.3,The Incredulity of Saint Thomas (Caravaggio),http://commons.wikimedia.org/wiki/Special:FilePath/Caravaggio%20incredulity.jpg
Q546297,Lamentation of Christ,Andrea Mantegna,1483,Italy,Italy,Italy,Pinacoteca di Brera,Pinacoteca di Brera,45.471955,9.187815,32,31424,51.2,Lamentation of Christ (Mantegna),http://commons.wikimedia.org/wiki/Special:FilePath/Lamentaci%C3%B3n%20sobre%20Cristo%20muerto%2C%20por%20Andrea%20Mantegna.jpg
Q2546309,Self-Portrait with Fur-Trimmed Robe,Albrecht Dürer,1500,Germany,Germany,Germany,Bavarian State Painting Collections,Nuremberg,49.453888888,11.0775,29,38805,51.2,"Self-Portrait (Dürer, Munich)",http://commons.wikimedia.org/wiki/Special:FilePath/D%C3%BCrer%20Alte%20Pinakothek.jpg
Q2354080,Christ in the Wilderness,Ivan Kramskoi,1872,Russia,Russia,Russia,Tretyakov Gallery,Tretyakov Gallery,55.741389,37.620864,21,65742,51.2,Christ in the Desert,http://commons.wikimedia.org/wiki/Special:FilePath/Ivan%20Kramskoy%20-%20%D0%A5%D1%80%D0%B8%D1%81%D1%82%D0%BE%D1%81%20%D0%B2%20%D0%BF%D1%83%D1%81%D1%82%D1%8B%D0%BD%D0%B5%20-%20Google%20Art%20Project.jpg
Q766782,The Jewish Bride,Rembrandt,1667,Netherlands,Netherlands,Netherlands,Rijksmuseum,Rijksmuseum,52.36,4.885277777,32,30472,51.1,The Jewish Bride,http://commons.wikimedia.org/wiki/Special:FilePath/Rembrandt%20Harmensz.%20van%20Rijn%20-%20Portret%20van%20een%20paar%20als%20oudtestamentische%20figuren%2C%20genaamd%20%27Het%20Joodse%20bruidje%27%20-%20Google%20Art%20Project.jpg
Q153441,La fornarina,Raphael,1519,Italy,Italy,Italy,Galleria Nazionale d'Arte Antica,Palazzo Barberini,41.903324209,12.489856069,31,32646,51.1,La Fornarina,http://commons.wikimedia.org/wiki/Special:FilePath/Raffaello%20Sanzio%20-%20La%20Fornarina%20%28ca.%201519-1520%29.jpg
Q1899740,Assumption of the Virgin,Titian,1517,Italy,Italy,Italy,Santa Maria Gloriosa dei Frari,Santa Maria Gloriosa dei Frari,45.43693,12.32649,27,43053,51.1,Assumption of the Virgin (Titian),http://commons.wikimedia.org/wiki/Special:FilePath/Tizian%20041.jpg
Q3348220,Spoliarium,Juan Luna,1884,Philippines,Philippines,Asia,National Museum of the Philippines,National Museum of Fine Arts,14.5869,120.9813,12,117597,51.1,Spoliarium,http://commons.wikimedia.org/wiki/Special:FilePath/Spoliarium.jpg
Q930137,The Tempest,Giorgione,1506,French occupation of the Republic of Venice,Italy,Italy,Gallerie dell'Accademia,Hall VIII,45.431078,12.328139,35,24584,51.0,The Tempest (Giorgione),http://commons.wikimedia.org/wiki/Special:FilePath/Giorgione%20-%20Das%20Gewitter.jpg
Q136433749,Portrait of Elisabeth Lederer,Gustav Klimt,1914,,,,,,,,13,105949,51.0,Portrait of Elisabeth Lederer,http://commons.wikimedia.org/wiki/Special:FilePath/Gustav%20Klimt%20-%20Bildnis%20der%20Elisabeth%20Lederer%20%281914-1916%29.jpg
Q1192570,The Blind Leading the Blind,Pieter Brueghel the Elder,1568,Italy,Italy,Italy,Museo di Capodimonte,Museo di Capodimonte,40.86699,14.250346,28,38079,50.9,The Blind Leading the Blind,http://commons.wikimedia.org/wiki/Special:FilePath/%D0%9F%D1%80%D0%B8%D1%82%D1%87%D0%B0%20%D0%BE%20%D1%81%D0%BB%D0%B5%D0%BF%D1%8B%D1%85.jpeg
Q1810165,Le Rêve,Pablo Picasso,1932,,,,http://www.wikidata.org/.well-known/genid/7a93dee9a84a4265b7d061b72f9a660c,,,,16,85005,50.9,Le Rêve (Picasso),
Q58791744,Portrait of an Artist (Pool with Two Figures),Q159907,1972,,,,http://www.wikidata.org/.well-known/genid/248fb3222987d2283869cd88d622c990,,,,14,98028,50.9,Portrait of an Artist (Pool with Two Figures),
Q19609193,"Composition II in Red, Blue, and Yellow",Piet Mondrian,1930,Switzerland,Switzerland,Switzerland,Kunsthaus Zürich,Kunsthaus Zürich,47.370277777,8.548055555,11,119393,50.9,"Composition with Red, Blue and Yellow",http://commons.wikimedia.org/wiki/Special:FilePath/Piet%20Mondriaan%2C%201930%20-%20Mondrian%20Composition%20II%20in%20Red%2C%20Blue%2C%20and%20Yellow.jpg
Q920030,Charles IV of Spain and His Family,Francisco Goya,1800,Spain,Spain,Spain,Museo del Prado,Museo del Prado,40.413888888,-3.692222222,30,32883,50.8,Charles IV of Spain and His Family,http://commons.wikimedia.org/wiki/Special:FilePath/La%20familia%20de%20Carlos%20IV%2C%20por%20Francisco%20de%20Goya.jpg
Q603751,The Peasant Wedding,Pieter Brueghel the Elder,1568,Austria,Austria,Austria,Kunsthistorisches Museum,Kunsthistorisches Museum,48.203880555,16.3616,29,35166,50.8,The Peasant Wedding,http://commons.wikimedia.org/wiki/Special:FilePath/Pieter%20Bruegel%20the%20Elder%20-%20Peasant%20Wedding%20-%20Google%20Art%20Project.jpg
Q276174,The Roses of Heliogabalus,Lawrence Alma-Tadema,1888,Mexico,Mexico,Americas,Pérez Simón Collection,,,,21,59190,50.8,The Roses of Heliogabalus,http://commons.wikimedia.org/wiki/Special:FilePath/The%20Roses%20of%20Heliogabalus.jpg
Q1560719,"Carnation, Lily, Lily and Rose",John Singer Sargent,1880,United Kingdom,United Kingdom,United Kingdom,National Gallery,Tate Britain,51.491062,-0.127789,21,59809,50.8,"Carnation, Lily, Lily, Rose",http://commons.wikimedia.org/wiki/Special:FilePath/John%20Singer%20Sargent%20-%20Carnation%2C%20Lily%2C%20Lily%2C%20Rose%20-%20Google%20Art%20Project.jpg
Q746716,Narcissuss,Caravaggio,1600,Italy,Italy,Italy,Galleria Nazionale d'Arte Antica,Galleria Nazionale d'Arte Antica,41.902779717,12.489527499,20,63992,50.8,Narcissus (Caravaggio),http://commons.wikimedia.org/wiki/Special:FilePath/Michelangelo%20Caravaggio%20065.jpg
Q3769169,Judith Beheading Holofernes,Artemisia Gentileschi,1620,Italy,Italy,Italy,Uffizi Gallery,Uffizi Gallery,43.768333333,11.255277777,14,95384,50.8,"Judith Slaying Holofernes (Artemisia Gentileschi, Florence)",http://commons.wikimedia.org/wiki/Special:FilePath/Artemisia%20Gentileschi%20-%20Giuditta%20decapita%20Oloferne%20-%20Google%20Art%20Project-Adjust.jpg
Q597114,Death of the Virgin,Caravaggio,1603,France,France,France,Department of Paintings of the Louvre,Louvre Museum,48.861111111,2.335833333,27,39067,50.7,Death of the Virgin (Caravaggio),http://commons.wikimedia.org/wiki/Special:FilePath/Death%20of%20the%20Virgin-Caravaggio%20%281606%29.jpg
Q685916,Crucifixion of Saint Peter,Caravaggio,1600,Italy,Italy,Italy,Santa Maria del Popolo,Cerasi Chapel,41.911502777,12.476655555,24,47900,50.7,Crucifixion of Saint Peter (Caravaggio),http://commons.wikimedia.org/wiki/Special:FilePath/Crucifixion%20of%20Saint%20Peter-Caravaggio%20%28c.1600%29.jpg
Q219344,The Slave Ship,J. M. W. Turner,1840,United States,United States,United States,Museum of Fine Arts Boston,United Kingdom,54.6,-2.0,15,85622,50.6,The Slave Ship,http://commons.wikimedia.org/wiki/Special:FilePath/Slave-ship.jpg
Q2011510,Bacchus,Caravaggio,1598,Italy,Italy,Italy,Uffizi Gallery,"Caravaggio, hall 90",43.768333333,11.255277777,26,40026,50.5,Bacchus (Caravaggio),http://commons.wikimedia.org/wiki/Special:FilePath/Baco%2C%20por%20Caravaggio.jpg
Q542066,Gabrielle d'Estrées et une de ses sœurs,http://www.wikidata.org/.well-known/genid/aff25ac9d91201867caca2ac3df7ceb8,1594,France,France,France,Department of Paintings of the Louvre,Room 824,,,22,51788,50.5,Gabrielle d'Estrées et une de ses sœurs,http://commons.wikimedia.org/wiki/Special:FilePath/Gabrielle%20d%27Estr%C3%A9es%20et%20une%20de%20ses%20s%C5%93urs%20-%20Mus%C3%A9e%20du%20Louvre%20Peintures%20RF%201937%201.jpg
Q1452762,Paris Street; Rainy Day,Gustave Caillebotte,1877,United States,United States,United States,Art Institute of Chicago,Art Institute of Chicago,41.879444444,-87.623888888,22,51255,50.5,Paris Street; Rainy Day,http://commons.wikimedia.org/wiki/Special:FilePath/Gustave%20Caillebotte%20-%20Paris%20Street%2C%20Rainy%20Day%20-%201964.336%20-%20Art%20Institute%20of%20Chicago.jpg
Q1090837,Bathers at Asnières,Georges Seurat,1884,United Kingdom,United Kingdom,United Kingdom,National Gallery,Post-Impressionism: French Painting 1850–1900 - room 44,51.508888888,-0.128333333,21,55176,50.5,Bathers at Asnières,http://commons.wikimedia.org/wiki/Special:FilePath/Baigneurs%20a%20Asnieres.jpg
Q1213151,The Entombment of Christ,Caravaggio,1600,Vatican City,Italy,Italy,Pinacoteca Vaticana,Pinacoteca Vaticana,41.90573,12.45277,21,55122,50.5,The Entombment of Christ (Caravaggio),http://commons.wikimedia.org/wiki/Special:FilePath/The%20Entombment%20of%20Christ-Caravaggio%20%28c.1602-3%29.jpg
Q2528477,Witches' Sabbath,Francisco Goya,1820,Spain,Spain,Spain,Museo del Prado,Museo del Prado,40.413888888,-3.692222222,18,68278,50.5,Witches' Sabbath (The Great He-Goat),http://commons.wikimedia.org/wiki/Special:FilePath/El%20Aquelarre.jpg
Q1219263,The Sleeping Gypsy,Henri Rousseau,1897,United States,United States,United States,Museum of Modern Art,Museum of Modern Art,40.761444444,-73.977611111,27,35772,50.4,The Sleeping Gypsy,http://commons.wikimedia.org/wiki/Special:FilePath/La%20Boh%C3%A9mienne%20endormie.jpg
Q2045726,The Battle of Anghiari,Leonardo da Vinci,1503,Italy,Italy,Italy,Palazzo Vecchio,Gabinetto dei disegni e delle stampe,43.768997,11.256379,26,38966,50.4,The Battle of Anghiari (Leonardo),http://commons.wikimedia.org/wiki/Special:FilePath/Peter%20Paul%20Ruben%27s%20copy%20of%20the%20lost%20Battle%20of%20Anghiari.jpg
Q2983399,The Second of May 1808,Francisco Goya,1814,Spain,Spain,Spain,Museo del Prado,Museo del Prado,40.413888888,-3.692222222,25,40858,50.4,The Second of May 1808,http://commons.wikimedia.org/wiki/Special:FilePath/El%20dos%20de%20mayo%20de%201808%20en%20Madrid.jpg
Q16950902,Beauty Revealed,Sarah Goodridge,1828,United States,United States,United States,Metropolitan Museum of Art,Metropolitan Museum of Art,40.779444444,-73.963333333,21,54353,50.4,Beauty Revealed,http://commons.wikimedia.org/wiki/Special:FilePath/Sarah%20Goodridge%20Beauty%20Revealed%20The%20Metropolitan%20Museum%20of%20Art.jpg
Q2735507,The Clothed Maja,Francisco Goya,1800,Spain,Spain,Spain,Museo del Prado,Museo del Prado,40.413888888,-3.692222222,28,33164,50.3,La maja vestida,http://commons.wikimedia.org/wiki/Special:FilePath/Goya%20Maja%20ubrana2.jpg
Q1167932,Belshazzar's Feast,Rembrandt,1636,United Kingdom,United Kingdom,United Kingdom,National Gallery,National Gallery,51.508888888,-0.128333333,26,37748,50.3,Belshazzar's Feast (Rembrandt),http://commons.wikimedia.org/wiki/Special:FilePath/Rembrandt-Belsazar.jpg
Q2327759,The Torment of Saint Anthony,Michelangelo,1487,United States,United States,United States,Q1741629,Q1741629,32.748611111,-97.365,23,46506,50.3,The Torment of Saint Anthony,http://commons.wikimedia.org/wiki/Special:FilePath/Michelangelo%20Buonarroti%20-%20The%20Torment%20of%20Saint%20Anthony%20-%20Google%20Art%20Project.jpg
Q965124,Laughing Cavalier,Frans Hals,1624,United Kingdom,United Kingdom,United Kingdom,Wallace Collection,Wallace Collection,51.517454,-0.153022,17,69235,50.3,Laughing Cavalier,http://commons.wikimedia.org/wiki/Special:FilePath/Frans%20Hals%20%E2%80%93%20The%20Laughing%20Cavalier.jpg
Q2583260,Crucifixion,Salvador Dalí,1954,United States,United States,United States,Metropolitan Museum of Art,Metropolitan Museum of Art,40.779444444,-73.963333333,13,89426,50.3,Crucifixion (Corpus Hypercubus),
Q586035,The Little Street,Johannes Vermeer,1658,Netherlands,Netherlands,Netherlands,Rijksmuseum,Gallery of Honour,52.360025,4.885286111,31,26460,50.2,The Little Street,http://commons.wikimedia.org/wiki/Special:FilePath/Johannes%20Vermeer%20-%20Gezicht%20op%20huizen%20in%20Delft%2C%20bekend%20als%20%27Het%20straatje%27%20-%20Google%20Art%20Project.jpg
Q2270938,Les Grandes Baigneuses,Paul Cézanne,1906,United States,United States,United States,Philadelphia Museum of Art,Philadelphia Museum of Art,39.965833333,-75.181388888,24,42517,50.2,The Bathers (Cézanne),http://commons.wikimedia.org/wiki/Special:FilePath/Paul%20C%C3%A9zanne%2C%20French%20-%20The%20Large%20Bathers%20-%20Google%20Art%20Project.jpg
Q2213811,The Haywain Triptych,Hieronymus Bosch,1510,Spain,Spain,Spain,Museo del Prado,Museo del Prado,40.413888888,-3.692222222,23,45071,50.2,The Haywain Triptych,http://commons.wikimedia.org/wiki/Special:FilePath/Jheronimus%20Bosch%20-%20De%20hooiwagen%20%28c.1516%2C%20Prado%29.jpg
Q2914912,The Stone Breakers,Gustave Courbet,1849,Germany,Germany,Germany,Staatliche Kunstsammlungen Dresden,Privé,51.0528,13.7369,20,54809,50.2,The Stone Breakers,http://commons.wikimedia.org/wiki/Special:FilePath/Gustave%20Courbet%20018.jpg
Q18002417,The Rape of Europa,Titian,1560,United States,United States,United States,Isabella Stewart Gardner Museum,Isabella Stewart Gardner Museum,42.33818,-71.099121,19,58948,50.2,The Rape of Europa (Titian),http://commons.wikimedia.org/wiki/Special:FilePath/Tizian%20085.jpg
Q2354379,The Hands Resist Him,Bill Stoneham,1972,,,,http://www.wikidata.org/.well-known/genid/e6f162797e83eb43287df83648bfa5fb,,,,15,76237,50.2,The Hands Resist Him,
Q537640,Angelus Novus,Paul Klee,1920,Israel,Israel,Asia,Israel Museum,Israel Museum,31.7725,35.204166666,14,82259,50.2,Angelus Novus,http://commons.wikimedia.org/wiki/Special:FilePath/Angelus%20Novus%2C%201920%20-%20Paul%20Klee.jpg
Q5880026,Self-Portrait with Thorn Necklace and Hummingbird,Frida Kahlo,1940,United States,United States,United States,Harry Ransom Center,Harry Ransom Center,30.284377,-97.741237,12,94166,50.2,Self-Portrait with Thorn Necklace and Hummingbird,
Q2629423,A Young Girl Reading,Jean-Honoré Fragonard,1770,United States,United States,United States,"National Gallery of Art (Washington, D.C.)","National Gallery of Art (Washington, D.C.)",38.891388888,-77.02,27,33411,50.1,A Young Girl Reading,http://commons.wikimedia.org/wiki/Special:FilePath/Fragonard%2C%20The%20Reader.jpg
Q1523789,Self-Portrait with Death Playing the Fiddle,Arnold Böcklin,1872,Germany,Germany,Germany,Alte Nationalgalerie,Alte Nationalgalerie,52.52081,13.398353,14,79462,50.1,Self-Portrait with Death Playing the Fiddle,http://commons.wikimedia.org/wiki/Special:FilePath/Arnold%20Boecklin-fiedelnder%20Tod.jpg
Q9295442,Hylas and the Nymphs,John William Waterhouse,1896,United Kingdom,United Kingdom,United Kingdom,Manchester Art Gallery,Manchester Art Gallery,53.478611111,-2.241388888,22,45580,50.0,Hylas and the Nymphs (painting),http://commons.wikimedia.org/wiki/Special:FilePath/Waterhouse%20Hylas%20and%20the%20Nymphs%20Manchester%20Art%20Gallery%201896.15.jpg
Q693746,The Monk by the Sea,Caspar David Friedrich,1800,Germany,Germany,Germany,Alte Nationalgalerie,Alte Nationalgalerie,52.52081,13.398353,21,48968,50.0,The Monk by the Sea,http://commons.wikimedia.org/wiki/Special:FilePath/Friedrich%2C%20Caspar%20David%20-%20M%C3%B6nch%20am%20Meer%20-%20Alte%20Nationalgalerie%20in%20Berlin.jpg
Q1142058,Benois Madonna,Leonardo da Vinci,1480,Russia,Russia,Russia,Hermitage Museum,Hermitage Museum,59.940555555,30.313611111,37,16288,49.9,Benois Madonna,http://commons.wikimedia.org/wiki/Special:FilePath/Leonardo%2C%20Madonna%20Benois.JPG
Q194137,The Sea of Ice,Caspar David Friedrich,1823,Germany,Germany,Germany,Hamburger Kunsthalle,Hamburger Kunsthalle,53.555,10.003055555,27,31598,49.9,The Sea of Ice,http://commons.wikimedia.org/wiki/Special:FilePath/Friedrich%2C%20Caspar%20David%20-%20Eismeer.jpg
Q1118295,Van Gogh's Chair,Vincent van Gogh,1889,United Kingdom,United Kingdom,United Kingdom,National Gallery,National Gallery,51.508888888,-0.128333333,19,52960,49.8,Van Gogh's Chair,http://commons.wikimedia.org/wiki/Special:FilePath/Vincent%20Willem%20van%20Gogh%20138.jpg
Q1757920,The Light of the World,William Holman Hunt,1853,United Kingdom,United Kingdom,United Kingdom,Keble College,Keble College,51.7589,-1.25771,17,60757,49.8,The Light of the World (Hunt),http://commons.wikimedia.org/wiki/Special:FilePath/Hunt%2C%20William%20Homan%20-%20The%20Light%20of%20the%20World%20-%201853-54.jpg
Q4310527,The Body of the Dead Christ in the Tomb,Hans Holbein the Younger,1520,Switzerland,Switzerland,Switzerland,Kunstmuseum Basel,Germany,51.0,10.0,16,65637,49.8,The Body of the Dead Christ in the Tomb,http://commons.wikimedia.org/wiki/Special:FilePath/Holbein%20%E2%80%94%20Dead%20Christ.jpg
Q568847,The Descent from the Cross,Rogier van der Weyden,1440,Spain,Spain,Spain,Museo del Prado,Royal Monastery of San Lorenzo de El Escorial,40.589167,-4.147778,27,30501,49.7,The Descent from the Cross (van der Weyden),http://commons.wikimedia.org/wiki/Special:FilePath/El%20Descendimiento%2C%20by%20Rogier%20van%20der%20Weyden%2C%20from%20Prado%20in%20Google%20Earth.jpg
Q663133,The Cardsharps,Caravaggio,1590,United States,United States,United States,Q1741629,Q1741629,32.748611111,-97.365,24,37331,49.7,The Cardsharps,http://commons.wikimedia.org/wiki/Special:FilePath/Caravaggio%20-%20The%20Cardsharps%20%281596-97%29%20Kimbell%20Art%20Museum.jpg
Q1212861,The Birth of Venus,Alexandre Cabanel,1863,France,France,France,Musée d'Orsay,Musée d'Orsay,48.859972,2.326527,22,42995,49.7,The Birth of Venus (Cabanel),http://commons.wikimedia.org/wiki/Special:FilePath/Alexandre%20Cabanel%20-%20The%20Birth%20of%20Venus%20-%20Google%20Art%20Project%202.jpg
Q472799,Mary Untier of Knots,Johann Georg Melchior Schmittner,1700,Germany,Germany,Germany,St. Peter am Perlach,St. Peter am Perlach,48.369153,10.898414,21,45296,49.7,"Mary, Untier of Knots",http://commons.wikimedia.org/wiki/Special:FilePath/Mary%2C%20Untier%20of%20Knots%20by%20Schmidtner.png
Q697332,Children's Games,Pieter Brueghel the Elder,1560,Austria,Austria,Austria,Kunsthistorisches Museum,Kunsthistorisches Museum,48.203880555,16.3616,21,45612,49.7,Children's Games (Bruegel),http://commons.wikimedia.org/wiki/Special:FilePath/Pieter%20Bruegel%20the%20Elder%20-%20Children%E2%80%99s%20Games%20-%20Google%20Art%20Project.jpg
Q2273517,Conversion on the Way to Damascus,Caravaggio,1600,Italy,Italy,Italy,Santa Maria del Popolo,Cerasi Chapel,41.911502777,12.476655555,21,45063,49.7,Conversion on the Way to Damascus,http://commons.wikimedia.org/wiki/Special:FilePath/Conversion%20on%20the%20Way%20to%20Damascus-Caravaggio%20%28c.1600-1%29.jpg
Q2461258,The Crying Boy,Giovanni Bragolin,1950,,,,http://www.wikidata.org/.well-known/genid/d7e7c7fd51a360ca14582d998ab1aadb,,,,14,73026,49.7,The Crying Boy,
Q1327676,Madonna Litta,Leonardo da Vinci,1490,Russia,Russia,Russia,Hermitage Museum,Hermitage Museum,59.940555555,30.313611111,30,24452,49.6,Madonna Litta,http://commons.wikimedia.org/wiki/Special:FilePath/Leonardo%20da%20Vinci%20attributed%20-%20Madonna%20Litta.jpg
Q2338417,The Martyrdom of Saint Matthew,Caravaggio,1600,Italy,Italy,Italy,San Luigi dei Francesi,San Luigi dei Francesi,41.899583333,12.474666666,24,36374,49.6,The Martyrdom of Saint Matthew (Caravaggio),http://commons.wikimedia.org/wiki/Special:FilePath/Caravaggio%20%E2%80%94%20The%20Martyrdom%20of%20Saint%20Matthew.jpg
Q241455,The Battle of Alexander at Issus,Albrecht Altdorfer,1529,Germany,Germany,Germany,Bavarian State Painting Collections,"Alte Pinakothek, upper floor, gallery I",48.149583,11.571776,21,44468,49.6,The Battle of Alexander at Issus,http://commons.wikimedia.org/wiki/Special:FilePath/Albrecht%20Altdorfer%20-%20Schlacht%20bei%20Issus%20%28Alte%20Pinakothek%2C%20M%C3%BCnchen%29%20-%20Google%20Art%20Project.jpg
Q3630735,Self-portrait,Vincent van Gogh,1889,France,France,France,Musée d'Orsay,Musée d'Orsay,48.859972,2.326527,21,44640,49.6,"Self-portrait (van Gogh, Paris)",http://commons.wikimedia.org/wiki/Special:FilePath/Vincent%20van%20Gogh%20-%20Self-Portrait%20-%20Google%20Art%20Project.jpg
Q3224275,The Slave Market,Jean-Léon Gérôme,1866,United States,United States,United States,Clark Art Institute,Clark Art Institute,42.7078,-73.2136,20,47216,49.6,The Slave Market (Gérôme painting),http://commons.wikimedia.org/wiki/Special:FilePath/Jean-L%C3%A9on%20G%C3%A9r%C3%B4me%20-%20Le%20March%C3%A9%20d%27esclaves.jpg
Q2324840,The Ancient of Days,William Blake,1794,United Kingdom,United Kingdom,United Kingdom,Glasgow University Library,British Museum,54.6,-2.0,19,50926,49.6,The Ancient of Days,http://commons.wikimedia.org/wiki/Special:FilePath/Europe%20a%20Prophecy%20copy%20K%20plate%2001.jpg
Q2354251,The Barque of Dante,Eugène Delacroix,1822,France,France,France,Department of Paintings of the Louvre,Room 700,48.8605,2.33494,26,30714,49.5,The Barque of Dante,http://commons.wikimedia.org/wiki/Special:FilePath/Eug%C3%A8ne%20Delacroix%20-%20The%20Barque%20of%20Dante.jpg
Q794077,Sacred and Profane Love,Titian,1514,Italy,Italy,Italy,Borghese Collection,Galleria Borghese,41.91421,12.492144,26,29901,49.4,Sacred and Profane Love,http://commons.wikimedia.org/wiki/Special:FilePath/Tiziano%20-%20Amor%20Sacro%20y%20Amor%20Profano%20%28Galer%C3%ADa%20Borghese%2C%20Roma%2C%201514%29FXD.jpg
Q1516449,Madonna of Chancellor Rolin,Jan van Eyck,1500,France,France,France,Department of Paintings of the Louvre,Room 818,,,25,32067,49.4,Madonna of Chancellor Rolin,http://commons.wikimedia.org/wiki/Special:FilePath/The%20Virgin%20with%20Chancellor%20Rolin%20by%20Jan%20van%20Eyck%20%28Louvre%29.webp
Q1206860,Bacchus and Ariadne,Titian,1520,United Kingdom,United Kingdom,United Kingdom,National Gallery,National Gallery,51.508888888,-0.128333333,20,45603,49.4,Bacchus and Ariadne,http://commons.wikimedia.org/wiki/Special:FilePath/Titian%20Bacchus%20and%20Ariadne.jpg
Q3978274,Susanna and the Elders,Artemisia Gentileschi,1610,Germany,Germany,Germany,Schloss Weißenstein,Schloss Weißenstein,49.76274,10.82049,17,54517,49.3,"Susanna and the Elders (Artemisia Gentileschi, Pommersfelden)",http://commons.wikimedia.org/wiki/Special:FilePath/Susanna%20and%20the%20Elders%20%281610%29%2C%20Artemisia%20GentileschiFXD.jpg
Q1167178,The Painter's Studio,Gustave Courbet,1850,France,France,France,Musée d'Orsay,Musée d'Orsay,48.859972,2.326527,30,22007,49.2,The Painter's Studio,http://commons.wikimedia.org/wiki/Special:FilePath/Courbet%20LAtelier%20du%20peintre.jpg
Q63692,The Procuress,Johannes Vermeer,1656,Germany,Germany,Germany,Staatliche Kunstsammlungen Dresden,Gemäldegalerie Alte Meister,51.05338,13.73466,24,32581,49.2,The Procuress (Vermeer),http://commons.wikimedia.org/wiki/Special:FilePath/Johannes%20Vermeer%20-%20The%20Procuress%20-%20Google%20Art%20Project.jpg
Q867403,Madonna with the Long Neck,Parmigianino,1600,Italy,Italy,Italy,Uffizi Gallery,Uffizi Gallery,43.768333333,11.255277777,24,32674,49.2,Madonna with the Long Neck,http://commons.wikimedia.org/wiki/Special:FilePath/Parmigianino%20-%20Madonna%20and%20Child%20with%20Angels%2C%20known%20as%20the%20Madonna%20with%20the%20Long%20Neck.jpg
Q1314013,The Intervention of the Sabine Women,Jacques-Louis David,1799,France,France,France,Department of Paintings of the Louvre,Room 702,48.860194444,2.336111111,22,37637,49.2,The Intervention of the Sabine Women,http://commons.wikimedia.org/wiki/Special:FilePath/The%20Intervention%20of%20the%20Sabine%20Women%20-%20David%20%28Louvre%20INV%203691%29.jpg
Q3877556,Nu couché,Amedeo Modigliani,1917,People's Republic of China,China,Asia,Long Museum,Long Museum,31.21811,121.569761,20,42886,49.2,Nu couché,http://commons.wikimedia.org/wiki/Special:FilePath/Modigliani%20-%20Nu%20couch%C3%A9.jpg
Q960157,Christ in the House of His Parents,John Everett Millais,1849,United Kingdom,United Kingdom,United Kingdom,National Gallery,Tate Britain,51.491062,-0.127789,17,52940,49.2,Christ in the House of His Parents,http://commons.wikimedia.org/wiki/Special:FilePath/John%20Everett%20Millais%20-%20Christ%20in%20the%20House%20of%20His%20Parents%20%28%60The%20Carpenter%27s%20Shop%27%29%20-%20Google%20Art%20Project.jpg
Q4808020,Automat,Edward Hopper,1927,United States,United States,United States,Des Moines Art Center,Des Moines Art Center,41.583888888,-93.681666666,17,52096,49.2,Automat (Hopper),http://commons.wikimedia.org/wiki/Special:FilePath/Automat-edward-hopper-1927.jpg
Q172354,Dream Caused by the Flight of a Bee Around a Pomegranate a Second Before Awakening,Salvador Dalí,1944,Spain,Spain,Spain,Thyssen-Bornemisza Museum,Thyssen-Bornemisza Museum,40.416041,-3.694925,13,68777,49.2,Dream Caused by the Flight of a Bee Around a Pomegranate a Second Before Awakening,
Q2030685,The Marriage of the Virgin,Raphael,1504,Italy,Italy,Italy,Pinacoteca di Brera,Pinacoteca di Brera,45.471955,9.187815,28,24335,49.1,The Marriage of the Virgin (Raphael),http://commons.wikimedia.org/wiki/Special:FilePath/Raffaello%20-%20Spozalizio%20-%20Web%20Gallery%20of%20Art.jpg
Q17275221,Truth Coming Out of Her Well,Jean-Léon Gérôme,1896,France,France,France,Musée Anne de Beaujeu,Musée Anne de Beaujeu,46.56722901,3.33000501,18,48409,49.1,Truth Coming Out of Her Well,http://commons.wikimedia.org/wiki/Special:FilePath/Jean%20L%C3%A9on%20Gerome%201896%20La%20V%C3%A9rit%C3%A9%20sortant%20du%20puits.JPG
Q1799228,La Vie,Pablo Picasso,1903,United States,United States,United States,Cleveland Museum of Art,Cleveland Museum of Art,41.508888888,-81.611666666,13,67776,49.1,La Vie (painting),
Q1651874,A Journalist Lecturing on the Orrery,Joseph Wright of Derby,1766,United Kingdom,United Kingdom,United Kingdom,Derby Museum and Art Gallery,Derby Museum and Art Gallery,52.92292,-1.48003,29,22505,49.0,A Philosopher Lecturing on the Orrery,http://commons.wikimedia.org/wiki/Special:FilePath/Wright%20of%20Derby%2C%20The%20Orrery.jpg
Q334360,The Abbey in the Oakwood,Caspar David Friedrich,1809,Germany,Germany,Germany,Alte Nationalgalerie,Alte Nationalgalerie,52.52081,13.398353,28,24170,49.0,The Abbey in the Oakwood,http://commons.wikimedia.org/wiki/Special:FilePath/Caspar%20David%20Friedrich%20-%20Abtei%20im%20Eichwald%20-%20Google%20Art%20Project.jpg
Q700251,Girl Reading a Letter at an Open Window,Johannes Vermeer,1658,Germany,Germany,Germany,Staatliche Kunstsammlungen Dresden,Gemäldegalerie Alte Meister,51.05338,13.73466,27,25566,49.0,Girl Reading a Letter at an Open Window,http://commons.wikimedia.org/wiki/Special:FilePath/Jan%20Vermeer%20van%20Delft%20-%20Brieflezend%20meisje%20bij%20het%20venster%20%28ca.%201657-59%29.jpg
Q2706250,The Ugly Duchess,Quinten Metsys,1513,United Kingdom,United Kingdom,United Kingdom,National Gallery,National Gallery,51.508888888,-0.128333333,15,57127,49.0,The Ugly Duchess,http://commons.wikimedia.org/wiki/Special:FilePath/Quentin%20Matsys%20-%20A%20Grotesque%20old%20woman.jpg
Q1437492,Woman with a hat,Henri Matisse,1905,United States,United States,United States,San Francisco Museum of Modern Art,San Francisco Museum of Modern Art,37.785718,-122.401051,15,57883,49.0,Woman with a Hat,http://commons.wikimedia.org/wiki/Special:FilePath/Matisse-Woman-with-a-Hat.jpg
Q2293936,Self-Portrait as Bacchus,Caravaggio,1595,Italy,Italy,Italy,Galleria Borghese,Room 8 - room of Silen,41.91421,12.492144,28,23433,48.9,Young Sick Bacchus,http://commons.wikimedia.org/wiki/Special:FilePath/Young%20Sick%20Bacchus-Caravaggio%20%281593%29.jpg
Q1170480,Syndics of the Drapers' Guild,Rembrandt,1662,Netherlands,Netherlands,Netherlands,Rijksmuseum,Gallery of Honour,52.360025,4.885286111,22,34738,48.9,Syndics of the Drapers' Guild,http://commons.wikimedia.org/wiki/Special:FilePath/Rembrandt%20-%20De%20Staalmeesters-%20het%20college%20van%20staalmeesters%20%28waardijns%29%20van%20het%20Amsterdamse%20lakenbereidersgilde%20-%20Google%20Art%20Project.jpg
Q1237863,Pollice Verso,Jean-Léon Gérôme,1872,United States,United States,United States,Phoenix Art Museum,Phoenix Art Museum,33.466749,-112.072655,20,40265,48.9,Pollice Verso (Gérôme),http://commons.wikimedia.org/wiki/Special:FilePath/Jean-Leon%20Gerome%20Pollice%20Verso.jpg
Q1313605,The Emperor Napoleon in His Study at the Tuileries,Jacques-Louis David,1812,United States,United States,United States,"National Gallery of Art (Washington, D.C.)","National Gallery of Art (Washington, D.C.)",38.891388888,-77.02,19,42849,48.9,The Emperor Napoleon in His Study at the Tuileries,http://commons.wikimedia.org/wiki/Special:FilePath/The%20Emperor%20Napoleon%20in%20His%20Study%20at%20the%20Tuileries%2C%20by%20Jacques-Louis%20David%20%281812%29%20-%20National%20Gallery%20of%20Art%20%28Samuel%20H.%20Kress%20Foundation%29.jpg
Q232087,Two men contemplating the Moon,Caspar David Friedrich,1819,Germany,Germany,Germany,Staatliche Kunstsammlungen Dresden,Galerie Neue Meister,51.051944388,13.744444388,17,49300,48.9,Two Men Contemplating the Moon,http://commons.wikimedia.org/wiki/Special:FilePath/Caspar%20David%20Friedrich%20-%20Two%20Men%20Contemplating%20the%20Moon%20-%20Google%20Art%20Project.jpg
Q3227448,Le Suicidé,Édouard Manet,1877,Switzerland,Switzerland,Switzerland,Foundation E.G. Bührle Collection,Foundation E.G. Bührle Collection,47.353045,8.561758,16,52676,48.9,Le Suicidé,http://commons.wikimedia.org/wiki/Special:FilePath/Edouard%20Manet%20-%20Le%20Suicid%C3%A9.jpg
Q663481,Golconda,René Magritte,1953,United States,United States,United States,Menil Collection,Menil Collection,29.73734,-95.39851,14,60241,48.9,Golconda (Magritte),
Q21010270,The Wounded Deer,Frida Kahlo,1946,,,,http://www.wikidata.org/.well-known/genid/c24b154096bc8d2abcd69b2711207df3,,,,12,68946,48.9,The Wounded Deer,
Q972196,Saint Jerome in the Wilderness,Leonardo da Vinci,1480,Vatican City,Italy,Italy,Pinacoteca Vaticana,Pinacoteca Vaticana,41.90573,12.45277,24,29957,48.8,Saint Jerome in the Wilderness (Leonardo),http://commons.wikimedia.org/wiki/Special:FilePath/Leonardo%20da%20Vinci%20%E2%80%94%20Jerome.jpg
Q531329,The Embarkation for Cythera,Jean-Antoine Watteau,1717,France,France,France,Department of Paintings of the Louvre,Room 917,,,22,33771,48.8,The Embarkation for Cythera,http://commons.wikimedia.org/wiki/Special:FilePath/L%27Embarquement%20pour%20Cyth%C3%A8re%2C%20by%20Antoine%20Watteau%2C%20from%20C2RMF%20retouched.jpg
Q689236,The Fight Between Carnival and Lent,Pieter Brueghel the Elder,1559,Austria,Austria,Austria,Kunsthistorisches Museum,Kunsthistorisches Museum,48.203880555,16.3616,20,39492,48.8,The Fight Between Carnival and Lent,http://commons.wikimedia.org/wiki/Special:FilePath/Pieter%20Bruegel%20d.%20%C3%84.%20066.jpg
Q32496,Bathsheba at Her Bath,Rembrandt,1654,France,France,France,Department of Paintings of the Louvre,Room 844,,,18,44350,48.8,Bathsheba at Her Bath (Rembrandt),http://commons.wikimedia.org/wiki/Special:FilePath/Bethsab%C3%A9e%20au%20bain%20tenant%20la%20lettre%20du%20roi%20David%20-%20Rembrandt%20-%20Mus%C3%A9e%20du%20Louvre%20Peintures%20MI%20957.jpg
Q646337,Nocturne in Black and Gold – The Falling Rocket,James McNeill Whistler,1875,United States,United States,United States,Detroit Institute of Arts,Detroit Institute of Arts,42.359444444,-83.064722222,17,48003,48.8,Nocturne in Black and Gold – The Falling Rocket,http://commons.wikimedia.org/wiki/Special:FilePath/Whistler-Nocturne%20in%20black%20and%20gold.jpg
Q644106,The Daughters of Edward Darley Boit,John Singer Sargent,1882,United States,United States,United States,Museum of Fine Arts Boston,Museum of Fine Arts Boston,42.339444444,-71.094166666,16,51519,48.8,The Daughters of Edward Darley Boit,http://commons.wikimedia.org/wiki/Special:FilePath/John%20Singer%20Sargent%20001.jpg
Q2610675,The Fortune Teller,Caravaggio,1594,France,France,France,Department of Paintings of the Louvre,Louvre Museum,48.861111111,2.335833333,26,24848,48.6,The Fortune Teller (Caravaggio),http://commons.wikimedia.org/wiki/Special:FilePath/The%20Fortune%20Teller-Caravaggio%20%28Louvre%29.jpg
Q16333797,Rudolf II as Vertumnus,Giuseppe Arcimboldo,1591,France,France,France,Palace of Versailles,Skokloster Castle,59.7038,17.61941,18,42433,48.6,Vertumnus (Arcimboldo),http://commons.wikimedia.org/wiki/Special:FilePath/Vertumnus%20%C3%A5rstidernas%20gud%20m%C3%A5lad%20av%20Giuseppe%20Arcimboldo%201591%20-%20Skoklosters%20slott%20-%2091503.jpg
Q63844,Soft Construction with Boiled Beans,Salvador Dalí,1936,United States,United States,United States,Philadelphia Museum of Art,Philadelphia Museum of Art,39.965833333,-75.181388888,13,59743,48.6,Soft Construction with Boiled Beans (Premonition of Civil War),
Q1134250,The Massacre of the Innocents,Pieter Brueghel the Elder,1566,United Kingdom,United Kingdom,United Kingdom,Royal Collection,Windsor Castle,51.483888888,-0.604444444,21,33873,48.5,Massacre of the Innocents (Bruegel),http://commons.wikimedia.org/wiki/Special:FilePath/Pieter%20Bruegel%20the%20Elder%20-%20Massacre%20of%20the%20Innocents%20-%20Google%20Art%20Project.jpg
Q405814,Ship of Fools,Hieronymus Bosch,1500,France,France,France,Department of Paintings of the Louvre,Room 815,,,25,25561,48.4,Ship of Fools (painting),http://commons.wikimedia.org/wiki/Special:FilePath/Jheronimus%20Bosch%20011.jpg
Q18209192,"Man Proposes, God Disposes",Edwin Landseer,1864,United Kingdom,United Kingdom,United Kingdom,"Royal Holloway, University of London","Royal Holloway, University of London",51.4248,-0.566731,13,56870,48.4,"Man Proposes, God Disposes",http://commons.wikimedia.org/wiki/Special:FilePath/Man%20proposes%20god%20disposes%20-%20Edwin%20Landseer%20-%20RH.jpg
Q2653851,The Elevation of the Cross,Peter Paul Rubens,1610,Belgium,Belgium,Belgium,Onze-Lieve-Vrouwekathedraal,Onze-Lieve-Vrouwekathedraal,51.220268,4.40025,24,26688,48.3,The Elevation of the Cross (Rubens),http://commons.wikimedia.org/wiki/Special:FilePath/Peter%20Paul%20Rubens%20-%20Raising%20of%20the%20Cross%20%28Cathedral%20of%20Antwerp%29.jpg
Q951105,The Feast in the House of Levi,Paolo Veronese,1573,Italy,Italy,Italy,Gallerie dell'Accademia,Venice,45.439722222,12.331944444,23,28098,48.3,The Feast in the House of Levi,http://commons.wikimedia.org/wiki/Special:FilePath/The%20Feast%20in%20the%20House%20of%20Levi%20by%20Paolo%20Veronese%20%28edited%202%29.jpg
Q1619527,Mr and Mrs Andrews,Thomas Gainsborough,1748,United Kingdom,United Kingdom,United Kingdom,National Gallery,United Kingdom,54.6,-2.0,21,32488,48.3,Mr and Mrs Andrews,http://commons.wikimedia.org/wiki/Special:FilePath/Thomas%20Gainsborough%20-%20Mr.%20und%20Mrs.%20Andrews%20%28c.%201750%29.jpg
Q4068125,The Apotheosis of War,Vasily Vereshchagin,1871,Russia,Russia,Russia,Tretyakov Gallery,Tretyakov Gallery,55.741389,37.620864,17,42121,48.3,The Apotheosis of War,http://commons.wikimedia.org/wiki/Special:FilePath/1871%20Vereshchagin%20Apotheose%20des%20Krieges%20anagoria.JPG
Q714794,Freedom of Worship,Norman Rockwell,1943,United States,United States,United States,Norman Rockwell Museum,Norman Rockwell Museum,42.287917,-73.335864,15,48301,48.3,Freedom of Worship (painting),http://commons.wikimedia.org/wiki/Special:FilePath/Save%20freedom%20of%20worship%20-%20each%20according%20to%20the%20dictates%20of%20his%20own%20conscience%20-%20buy%20war%20bonds%20-%20DPLA%20-%2032b167140fd2f03c3b0dbdbc8aeb298c.jpg
Q488825,Adoration of the Magi,Sandro Botticelli,1475,Italy,Italy,Italy,Uffizi Gallery,Uffizi Gallery,43.768333333,11.255277777,25,24003,48.2,Adoration of the Magi (Botticelli),http://commons.wikimedia.org/wiki/Special:FilePath/Zanobi-Altar.jpg
Q655705,The Musicians,Caravaggio,1595,United States,United States,United States,Metropolitan Museum of Art,Metropolitan Museum of Art,40.779444444,-73.963333333,22,29331,48.2,The Musicians (Caravaggio),http://commons.wikimedia.org/wiki/Special:FilePath/The%20Musicians%20MET%20DP-687-001.jpg
Q594406,The Fall of the Rebel Angels,Pieter Brueghel the Elder,1562,Belgium,Belgium,Belgium,Royal Museums of Fine Arts of Belgium,Royal Museums of Fine Arts of Belgium,50.84168,4.358238,19,36482,48.2,The Fall of the Rebel Angels,http://commons.wikimedia.org/wiki/Special:FilePath/Pieter%20Bruegel%20the%20Elder%20-%20The%20Fall%20of%20the%20Rebel%20Angels%20-%20Google%20Art%20Project.jpg
Q2422889,Portrait of a Young Man,Raphael,1513,Poland,Poland,Europe other,Czartoryski Museum,Czartoryski Museum,50.0646408,19.9399667,16,43845,48.2,Portrait of a Young Man (Raphael),http://commons.wikimedia.org/wiki/Special:FilePath/Raphael%20missing.jpg
Q21056477,The Broken Column,Frida Kahlo,1944,Mexico,Mexico,Americas,Museo Dolores Olmedo,Museo Dolores Olmedo,19.266,-99.126024,16,44385,48.2,The Broken Column,
Q2439462,Portrait of a Lady,Rogier van der Weyden,1460,United States,United States,United States,"National Gallery of Art (Washington, D.C.)","National Gallery of Art (Washington, D.C.)",38.891388888,-77.02,24,25077,48.1,Portrait of a Lady (van der Weyden),http://commons.wikimedia.org/wiki/Special:FilePath/Rogier%20van%20der%20Weyden%20-%20Portrait%20of%20a%20Lady%20-%20Google%20Art%20Project.jpg
Q1387483,The Last Judgment,Hieronymus Bosch,1450,Austria,Austria,Austria,Academy of Fine Arts Vienna,Academy of Fine Arts Vienna,48.201253,16.365103,16,42637,48.1,"The Last Judgment (Bosch, Vienna)",http://commons.wikimedia.org/wiki/Special:FilePath/Jheronimus%20Bosch%20097%20exterior%2002.jpg
Q1787460,Watson and the Shark,John Singleton Copley,1778,United States,United States,United States,Museum of Fine Arts Boston,United States,39.828175,-98.5795,16,42659,48.1,Watson and the Shark,http://commons.wikimedia.org/wiki/Special:FilePath/Watsonandtheshark-original.jpg
Q1213936,The Gross Clinic,Thomas Eakins,1875,United States,United States,United States,Philadelphia Museum of Art,Philadelphia Museum of Art,39.965833333,-75.181388888,14,49315,48.1,The Gross Clinic,http://commons.wikimedia.org/wiki/Special:FilePath/Thomas%20Eakins%2C%20American%20-%20Portrait%20of%20Dr.%20Samuel%20D.%20Gross%20%28The%20Gross%20Clinic%29%20-%20Google%20Art%20Project.jpg
Q2338404,Portrait of a Musician,Leonardo da Vinci,1485,Italy,Italy,Italy,Pinacoteca Ambrosiana,Pinacoteca Ambrosiana,45.46378,9.185952,27,20155,48.0,Portrait of a Musician,http://commons.wikimedia.org/wiki/Special:FilePath/Leonardo%20da%20Vinci%20-%20Portrait%20of%20a%20Musician%20-%20Pinacoteca%20Ambrosiana.jpg
Q2610936,Boy with a Basket of Fruit,Caravaggio,1594,Italy,Italy,Italy,Borghese Collection,Galleria Borghese,41.91421,12.492144,24,24506,48.0,Boy with a Basket of Fruit,http://commons.wikimedia.org/wiki/Special:FilePath/Boy%20with%20a%20Basket%20of%20Fruit-Caravaggio%20%281593%29.jpg
Q3555076,Nymphs and Satyr,William-Adolphe Bouguereau,1873,United States,United States,United States,Clark Art Institute,Clark Art Institute,42.7078,-73.2136,23,26481,48.0,Nymphs and Satyr,http://commons.wikimedia.org/wiki/Special:FilePath/William-Adolphe%20Bouguereau%20%281825-1905%29%20-%20Nymphs%20and%20Satyr%20%281873%29%20HQ.jpg
Q798034,Bacchus,Francesco Melzi,1510,France,France,France,Department of Paintings of the Louvre,Room 710,,,19,34106,48.0,Bacchus (Leonardo),http://commons.wikimedia.org/wiki/Special:FilePath/Bacchus%20-%20Leonardo%20da%20Vinci%20workshop%20-%20Louvre%20INV%20780.jpg
Q960447,Tiger in a Tropical Storm,Henri Rousseau,1891,United Kingdom,United Kingdom,United Kingdom,National Gallery,National Gallery,51.508888888,-0.128333333,17,39182,48.0,Tiger in a Tropical Storm,http://commons.wikimedia.org/wiki/Special:FilePath/Surprised-Rousseau.jpg
Q2538580,The Joy of Life,Henri Matisse,1906,United States,United States,United States,Barnes Foundation,Barnes Foundation,39.960643,-75.172808,15,44930,48.0,Le bonheur de vivre,http://commons.wikimedia.org/wiki/Special:FilePath/La%20Joie%20de%20vivre%2C%20par%20Henri%20Matisse.jpg
Q3222585,Le Désespéré,Gustave Courbet,1840,Qatar,Qatar,Asia,Q136497529,Musée d'Orsay website,25.29936,51.5465,14,48324,48.0,Le Désespéré,http://commons.wikimedia.org/wiki/Special:FilePath/Gustave%20Courbet%20-%20Le%20D%C3%A9sesp%C3%A9r%C3%A9%20%281843%29.jpg
Q4390923,Isleworth Mona Lisa,Leonardo da Vinci,1502,,,,http://www.wikidata.org/.well-known/genid/4ac01d06151ccf83dccdfdab5fdb3d3c,,,,12,55292,48.0,Isleworth Mona Lisa,http://commons.wikimedia.org/wiki/Special:FilePath/The%20Isleworth%20Mona%20Lisa.jpg
Q698015,Madonna of the Carnation,Leonardo da Vinci,1475,Germany,Germany,Germany,Bavarian State Painting Collections,"Alte Pinakothek, upper floor, gallery IV",48.149583,11.571776,30,16231,47.9,Madonna of the Carnation,http://commons.wikimedia.org/wiki/Special:FilePath/LEONARDO-DA-VINCI%20-%20MADONNA-MIT-DER-NELKE-7779%20917154%20BSTGS.jpg
Q45130,The Geographer,Johannes Vermeer,1668,Germany,Germany,Germany,Städel Museum,Städel Museum,50.10322,8.67388,25,22215,47.9,The Geographer,http://commons.wikimedia.org/wiki/Special:FilePath/Johannes%20Vermeer%2C%20Der%20Geograf%2C%201669.png
Q1216387,The Lacemaker,Johannes Vermeer,1669,France,France,France,Department of Paintings of the Louvre,Room 837,,,24,23760,47.9,The Lacemaker (Vermeer),http://commons.wikimedia.org/wiki/Special:FilePath/Johannes%20Vermeer%20-%20The%20lacemaker%20%28c.1669-1671%29.jpg
Q80317,Garçon à la pipe,Pablo Picasso,1905,,,,http://www.wikidata.org/.well-known/genid/fc981ac2be118ab95f33098d0e3ddbb4,,,,22,27452,47.9,Garçon à la pipe,
Q1220013,Opening of the Fifth Seal,El Greco,1610,United States,United States,United States,Metropolitan Museum of Art,Metropolitan Museum of Art,40.779444444,-73.963333333,19,33608,47.9,Opening of the Fifth Seal,http://commons.wikimedia.org/wiki/Special:FilePath/El%20Greco%2C%20The%20Vision%20of%20Saint%20John%20%281608-1614%29.jpg
Q5526647,Gassed,John Singer Sargent,1919,United Kingdom,United Kingdom,United Kingdom,Imperial War Museum London,Imperial War Museum London,51.495831,-0.108662,14,46516,47.9,Gassed (painting),http://commons.wikimedia.org/wiki/Special:FilePath/John%20Singer%20Sargent%20-%20Gassed%20%281919%29.jpg
Q984058,Las Hilanderas,Diego Velázquez,1655,Spain,Spain,Spain,Museo del Prado,Museo del Prado,40.413888888,-3.692222222,30,15526,47.8,Las Hilanderas,http://commons.wikimedia.org/wiki/Special:FilePath/Velazquez-las%20hilanderas.jpg
Q2337873,The Inspiration of Saint Matthew,Caravaggio,1602,Italy,Italy,Italy,San Luigi dei Francesi,Contarelli Chapel,41.89944444,12.47472222,23,25178,47.8,The Inspiration of Saint Matthew,http://commons.wikimedia.org/wiki/Special:FilePath/Caravaggio%20-%20La%20inspiraci%C3%B3n%20de%20San%20Mateo%20%28San%20Luigi%20dei%20Francesi%2C%20Roma%29.jpg
Q80869,Dull Gret,Pieter Brueghel the Elder,1561,Belgium,Belgium,Belgium,Museum Mayer van den Bergh,Museum Mayer van den Bergh,51.215517,4.405316,20,30688,47.8,Dull Gret,http://commons.wikimedia.org/wiki/Special:FilePath/Dulle%20Griet%2C%20by%20Pieter%20Brueghel%20%28I%29.jpg
Q1766454,Les raboteurs de parquet,Gustave Caillebotte,1875,France,France,France,Musée d'Orsay,Musée d'Orsay,48.859972,2.326527,19,32872,47.8,Les raboteurs de parquet,http://commons.wikimedia.org/wiki/Special:FilePath/Gustave%20Caillebotte%20-%20The%20Floor%20Planers%20-%20Google%20Art%20Project.jpg
Q1215604,The Source,Jean-Auguste-Dominique Ingres,1856,France,France,France,Musée d'Orsay,Musée d'Orsay,48.859972,2.326527,29,16316,47.7,The Source (Ingres),http://commons.wikimedia.org/wiki/Special:FilePath/Jean%20Auguste%20Dominique%20Ingres%20-%20The%20Spring%20-%20Google%20Art%20Project%202.jpg
Q2409245,Portrait of a Young Girl,Petrus Christus,1470,Germany,Germany,Germany,Gemäldegalerie Berlin,Gemäldegalerie Berlin,52.508611111,13.364722222,25,21575,47.7,Portrait of a Young Girl (Christus),http://commons.wikimedia.org/wiki/Special:FilePath/Petrus%20Christus%20-%20Portrait%20of%20a%20Young%20Woman%20-%20Google%20Art%20Project.jpg
Q1445107,Danaë,Gustav Klimt,1907,Austria,Austria,Austria,Leopold Museum,Leopold Museum,48.20265,16.359142,24,22759,47.7,Danaë (Klimt),http://commons.wikimedia.org/wiki/Special:FilePath/Gustav%20Klimt%20010.jpg
Q39537,Circe Offering the Cup to Ulysses,John William Waterhouse,1891,United Kingdom,United Kingdom,United Kingdom,Gallery Oldham,Gallery Oldham,53.5403,-2.10917,19,31930,47.7,Circe Offering the Cup to Ulysses,http://commons.wikimedia.org/wiki/Special:FilePath/Circe%20Offering%20the%20Cup%20to%20Odysseus%20%282457%20x%204023px%20ed.%29.jpg
Q2715177,Saint Jerome,Caravaggio,1606,Italy,Italy,Italy,Borghese Collection,Galleria Borghese,41.91421,12.492144,18,34249,47.7,Saint Jerome Writing,http://commons.wikimedia.org/wiki/Special:FilePath/Caravaggio%20-%20Saint%20Jerome%20-%20Galleria%20Borghese.jpg
Q2915406,Broadway Boogie Woogie,Piet Mondrian,1942,United States,United States,United States,Museum of Modern Art,Museum of Modern Art,40.761444444,-73.977611111,18,33863,47.7,Broadway Boogie Woogie,http://commons.wikimedia.org/wiki/Special:FilePath/Piet%20Mondrian%2C%201942%20-%20Broadway%20Boogie%20Woogie.jpg
Q2528741,Christ Crucified,Diego Velázquez,1632,Spain,Spain,Spain,Museo del Prado,Museo del Prado,40.413888888,-3.692222222,18,33892,47.7,Christ Crucified (Velázquez),http://commons.wikimedia.org/wiki/Special:FilePath/Cristo%20crucificado.jpg
Q17001535,Death and Life,Gustav Klimt,1910,Austria,Austria,Austria,Leopold Museum,Leopold Museum,48.20265,16.359142,16,39326,47.7,Death and Life,http://commons.wikimedia.org/wiki/Special:FilePath/Gustav%20Klimt%20-%20Death%20and%20Life%20-%20Google%20Art%20Project.jpg
Q18344787,Lady Agnew of Lochnaw,John Singer Sargent,1892,United Kingdom,United Kingdom,United Kingdom,National Galleries Scotland,Scottish National Gallery,55.950902,-3.195686,11,55021,47.7,Lady Agnew of Lochnaw,http://commons.wikimedia.org/wiki/Special:FilePath/John%20Singer%20Sargent%20-%20Lady%20Agnew%20of%20Lochnaw%20%281892%29.jpeg
Q969367,Woman Holding a Balance,Johannes Vermeer,1665,United States,United States,United States,"National Gallery of Art (Washington, D.C.)","National Gallery of Art (Washington, D.C.)",38.891388888,-77.02,27,18245,47.6,Woman Holding a Balance,http://commons.wikimedia.org/wiki/Special:FilePath/Johannes%20Vermeer%20-%20Woman%20Holding%20a%20Balance%20-%20Google%20Art%20Project.jpg
Q2873092,Autumn Rhythm (Number 30),Jackson Pollock,1950,United States,United States,United States,Metropolitan Museum of Art,Metropolitan Museum of Art,40.779444444,-73.963333333,11,53513,47.6,Autumn Rhythm (Number 30),
Q701035,The Last Judgment,Hans Memling,1467,Poland,Poland,Europe other,National Museum in Gdańsk,National Museum in Gdańsk,54.345425,18.64691389,23,23089,47.5,The Last Judgment (Memling),http://commons.wikimedia.org/wiki/Special:FilePath/Das%20J%C3%BCngste%20Gericht%20%28Memling%29.jpg
Q1212920,Flagellation of Christ,Piero della Francesca,1459,Italy,Italy,Italy,Galleria Nazionale delle Marche,Galleria Nazionale delle Marche,43.724344,12.636471,22,24992,47.5,Flagellation of Christ (Piero della Francesca),http://commons.wikimedia.org/wiki/Special:FilePath/Piero%20della%20Francesca%20Flagellazione-gndm-full.jpg
Q2626595,The Seven Works of Mercy,Caravaggio,1600,Italy,Italy,Italy,Pio Monte della Misericordia,Pio Monte della Misericordia,40.851871,14.260426,18,32674,47.5,The Seven Works of Mercy (Caravaggio),http://commons.wikimedia.org/wiki/Special:FilePath/The%20Seven%20Works%20of%20Mercy-Caravaggio%20%281607%29.jpg
Q3607521,At the Moulin Rouge,Henri de Toulouse-Lautrec,1892,United States,United States,United States,Art Institute of Chicago,Art Institute of Chicago,41.879444444,-87.623888888,18,32698,47.5,At the Moulin Rouge,http://commons.wikimedia.org/wiki/Special:FilePath/Henri%20de%20Toulouse-Lautrec%20-%20At%20the%20Moulin%20Rouge%20-%201928.610%20-%20Art%20Institute%20of%20Chicago.jpg
Q16965482,In a Roman Osteria,Carl Bloch,1866,Denmark,Denmark,Europe other,Statens Museum for Kunst,Statens Museum for Kunst,55.68889,12.57861,16,37318,47.5,In a Roman Osteria,http://commons.wikimedia.org/wiki/Special:FilePath/Fra%20et%20romersk%20osteria.jpg
Q956541,The Death of General Wolfe,Benjamin West,1770,Canada,Canada,Americas,National Gallery of Canada,National Gallery of Canada,45.429535,-75.698906,12,48668,47.5,The Death of General Wolfe,http://commons.wikimedia.org/wiki/Special:FilePath/Benjamin%20West%20005.jpg
Q673984,A Bigger Splash,Q159907,1967,United Kingdom,United Kingdom,United Kingdom,Tate,Tate Britain,51.491062,-0.127789,10,55298,47.5,A Bigger Splash,
Q500951,The Yellow Christ,Paul Gauguin,1889,United States,United States,United States,Buffalo AKG Art Museum,Buffalo AKG Art Museum,42.93245,-78.875618,32,12514,47.4,The Yellow Christ,http://commons.wikimedia.org/wiki/Special:FilePath/Paul%20Gauguin%20-%20The%20Yellow%20Christ%20%28Le%20Christ%20jaune%29%201889.jpg
Q2336984,The Music Lesson,Johannes Vermeer,1662,United Kingdom,United Kingdom,United Kingdom,Royal Collection,Buckingham Palace,51.501,-0.142,25,19644,47.4,The Music Lesson,http://commons.wikimedia.org/wiki/Special:FilePath/Johannes%20Vermeer%20-%20Lady%20at%20the%20Virginal%20with%20a%20Gentleman%2C%20%27The%20Music%20Lesson%27%20-%20Google%20Art%20Project.jpg
Q1430990,"Venus, Cupid, Folly and Time",Bronzino,1545,United Kingdom,United Kingdom,United Kingdom,National Gallery,National Gallery,51.508888888,-0.128333333,23,22528,47.4,"Venus, Cupid, Folly and Time",http://commons.wikimedia.org/wiki/Special:FilePath/Angelo%20Bronzino%20-%20Venus%2C%20Cupid%2C%20Folly%20and%20Time%20-%20National%20Gallery%2C%20London.jpg
Q4429116,The Magpie,Pablo Picasso,1868,France,France,France,Musée d'Orsay,Musée d'Orsay,48.859972,2.326527,19,29709,47.4,The Magpie (Monet),http://commons.wikimedia.org/wiki/Special:FilePath/Claude%20Monet%20-%20The%20Magpie%20-%20Google%20Art%20Project.jpg
Q714804,Freedom from Fear,Norman Rockwell,1943,United States,United States,United States,Norman Rockwell Museum,Norman Rockwell Museum,42.287917,-73.335864,14,41587,47.4,Freedom from Fear (painting),http://commons.wikimedia.org/wiki/Special:FilePath/%22Freedom%20from%20Fear%22%20-%20NARA%20-%20513538.jpg
Q7715071,The Awakening Conscience,William Holman Hunt,1853,United Kingdom,United Kingdom,United Kingdom,Tate Britain,Tate,51.491062,-0.127789,14,41679,47.4,The Awakening Conscience,http://commons.wikimedia.org/wiki/Special:FilePath/William%20Holman%20Hunt%20-%20The%20Awakening%20Conscience%20-%20Google%20Art%20Project.jpg
Q2915336,"The Bride Stripped Bare By Her Bachelors, Even",Marcel Duchamp,1915,United States,United States,United States,Philadelphia Museum of Art,France,47.0,2.0,11,50205,47.4,"The Bride Stripped Bare by Her Bachelors, Even",
Q1217003,Portrait of an Unknown Woman,Ivan Kramskoi,1883,Russia,Russia,Russia,Tretyakov Gallery,Tretyakov Gallery,55.741389,37.620864,27,16959,47.3,Portrait of an Unknown Woman,http://commons.wikimedia.org/wiki/Special:FilePath/Kramskoy%20Portrait%20of%20a%20Woman.jpg
Q432253,Garden at Sainte-Adresse,Claude Monet,1867,United States,United States,United States,Metropolitan Museum of Art,Metropolitan Museum of Art,40.779444444,-73.963333333,23,22013,47.3,Garden at Sainte-Adresse,http://commons.wikimedia.org/wiki/Special:FilePath/Claude%20Monet%20-%20Jardin%20%C3%A0%20Sainte-Adresse.jpg
Q2667782,The Descent from the Cross,Peter Paul Rubens,1611,Belgium,Belgium,Belgium,Onze-Lieve-Vrouwekathedraal,Onze-Lieve-Vrouwekathedraal,51.220268,4.40025,18,30658,47.3,"The Descent from the Cross (Rubens, 1612–1614)",http://commons.wikimedia.org/wiki/Special:FilePath/Peter%20Paul%20Rubens%20-%20Descent%20from%20the%20Cross%20-%20WGA20212.jpg
Q495447,Massacre in Korea,Pablo Picasso,1951,France,France,France,Musée Picasso,Musée Picasso,48.859731,2.362439,14,40798,47.3,Massacre in Korea,
Q2464824,Metamorphosis of Narcissus,Salvador Dalí,1938,United Kingdom,United Kingdom,United Kingdom,Tate,Tate Modern,51.507777777,-0.099444444,10,52800,47.3,Metamorphosis of Narcissus,
Q2472983,Last Supper,Jacopo Tintoretto,1563,Italy,Italy,Italy,Church of San Giorgio Maggiore,Church of San Giorgio Maggiore,45.4293,12.3433,22,23062,47.2,Last Supper (Tintoretto),http://commons.wikimedia.org/wiki/Special:FilePath/Jacopo%20Tintoretto%20-%20The%20Last%20Supper%20-%20WGA22649.jpg
Q2714617,The Disrobing of Christ,El Greco,1578,Spain,Spain,Spain,Toledo Cathedral,Toledo Cathedral,39.857083333,-4.023888888,21,24514,47.2,The Disrobing of Christ,http://commons.wikimedia.org/wiki/Special:FilePath/El%20Expolio%2C%20por%20El%20Greco.jpg
Q686107,The Procession to Calvary,Pieter Brueghel the Elder,1564,Austria,Austria,Austria,Kunsthistorisches Museum,Pieter Breugelthe Elder  - Hall X,48.203880555,16.3616,19,28422,47.2,The Procession to Calvary (Bruegel),http://commons.wikimedia.org/wiki/Special:FilePath/Pieter%20Bruegel%20d.%20%C3%84.%20007b.jpg
Q579455,Suprematist Composition: White on White,Kazimir Malevich,1918,United States,United States,United States,Museum of Modern Art,Museum of Modern Art,40.761444444,-73.977611111,17,31980,47.2,White on White,http://commons.wikimedia.org/wiki/Special:FilePath/White%20on%20White%20%28Malevich%2C%201918%29.png
Q4451145,Dance at Bougival,Pierre-Auguste Renoir,1883,United States,United States,United States,Museum of Fine Arts Boston,Museum of Fine Arts Boston,42.339444444,-71.094166666,17,32567,47.2,Dance at Bougival,http://commons.wikimedia.org/wiki/Special:FilePath/Dance-At-Bougival.jpg
Q1813497,Wilton Diptych,http://www.wikidata.org/.well-known/genid/ffbef093f41550ffa45b30c5b91a3156,1397,United Kingdom,United Kingdom,United Kingdom,National Gallery,United Kingdom,54.6,-2.0,15,37258,47.2,Wilton Diptych,http://commons.wikimedia.org/wiki/Special:FilePath/Wilton%20Diptych.jpg
Q3686086,Pastoral Concert,Titian,1510,France,France,France,Department of Paintings of the Louvre,Louvre storage (depot),,,15,37139,47.2,Pastoral Concert,http://commons.wikimedia.org/wiki/Special:FilePath/Le%20Concert%20champ%C3%AAtre%2C%20by%20Titian%2C%20from%20C2RMF%20retouched.jpg
Q6122115,Saturn,Peter Paul Rubens,1637,Spain,Spain,Spain,Museo del Prado,Museo del Prado,40.413888888,-3.692222222,12,45157,47.2,Saturn (Rubens),http://commons.wikimedia.org/wiki/Special:FilePath/Rubens%20saturn.jpg
Q2344505,Madonna of the Goldfinch,Raphael,1505,Italy,Italy,Italy,Uffizi Gallery,Uffizi Gallery,43.768333333,11.255277777,29,14158,47.1,Madonna del Cardellino,http://commons.wikimedia.org/wiki/Special:FilePath/Raphael%2C%20Madonna%20del%20Cardellino%2C%201507%2C%20Uffizi.jpg
Q2294441,Danaë,Rembrandt,1636,Russia,Russia,Russia,Hermitage Museum,Hermitage Museum,59.940555555,30.313611111,27,16080,47.1,Danaë (Rembrandt),http://commons.wikimedia.org/wiki/Special:FilePath/Rembrandt%20Harmensz.%20van%20Rijn%20026.jpg
Q776175,The Harvesters,Pieter Brueghel the Elder,1565,United States,United States,United States,Metropolitan Museum of Art,Metropolitan Museum of Art,40.779444444,-73.963333333,24,19653,47.1,The Harvesters (painting),http://commons.wikimedia.org/wiki/Special:FilePath/Pieter%20Bruegel%20the%20Elder-%20The%20Harvesters%20-%20Google%20Art%20Project.jpg
Q2308934,Leda and the Swan,Leonardo da Vinci,1510,France,France,France,Palace of Fontainebleau,Museum Boijmans Van Beuningen,51.914215,4.473341,19,27533,47.1,Leda and the Swan (Leonardo),http://commons.wikimedia.org/wiki/Special:FilePath/Study%20for%20the%20Kneeling%20Leda.jpg
Q1683743,Vampire,Edvard Munch,1893,Norway,Norway,Europe other,Munch Museum,Munch Museum,59.90575,10.755305555,18,29171,47.1,Love and Pain (Munch),http://commons.wikimedia.org/wiki/Special:FilePath/Edvard%20Munch%20-%20Vampire%20-%20MM.M.00292%20-%20Munch%20Museum.jpg
